[
  {
    "id": 1,
    "name": "Abadago",
    "lat": 7.2293586,
    "lon": 2.5240328,
    "region": 11
  },
  {
    "id": 2,
    "name": "Abato",
    "lat": 6.7260559,
    "lon": 2.4803427,
    "region": 10
  },
  {
    "id": 3,
    "name": "Abeokouta",
    "lat": 6.8123811,
    "lon": 2.4728283,
    "region": 10
  },
  {
    "id": 4,
    "name": "Abéokouta",
    "lat": 6.6629809,
    "lon": 2.4944537,
    "region": 10
  },
  {
    "id": 5,
    "name": "Abidomey",
    "lat": 6.7428614,
    "lon": 2.552433,
    "region": 10
  },
  {
    "id": 6,
    "name": "Ablodé",
    "lat": 6.7046525,
    "lon": 1.8069505,
    "region": 9
  },
  {
    "id": 7,
    "name": "Ablomey",
    "lat": 6.9337478,
    "lon": 1.7305967,
    "region": 6
  },
  {
    "id": 8,
    "name": "Abogomè",
    "lat": 6.5471793,
    "lon": 2.5830199,
    "region": 10
  },
  {
    "id": 9,
    "name": "Abogomè-Hlihoué",
    "lat": 6.5546656,
    "lon": 2.5718909,
    "region": 10
  },
  {
    "id": 10,
    "name": "Abokpodji",
    "lat": 6.6394119,
    "lon": 1.9804233,
    "region": 9
  },
  {
    "id": 11,
    "name": "Aboloumè",
    "lat": 7.0950693,
    "lon": 1.6554455,
    "region": 6
  },
  {
    "id": 12,
    "name": "Abomey",
    "lat": 7.1820012,
    "lon": 1.993632,
    "region": 12
  },
  {
    "id": 13,
    "name": "Abomey-Calavi",
    "lat": 6.4538637,
    "lon": 2.354245,
    "region": 3,
    "shortName": "Calavi"
  },
  {
    "id": 14,
    "name": "Abou Koto",
    "lat": 11.1773178,
    "lon": 2.9327166,
    "region": 1
  },
  {
    "id": 15,
    "name": "Achitou",
    "lat": 6.7966523,
    "lon": 1.7733882,
    "region": 6
  },
  {
    "id": 16,
    "name": "Aclomè",
    "lat": 6.4538358,
    "lon": 1.9229181,
    "region": 9
  },
  {
    "id": 17,
    "name": "Adamè",
    "lat": 7.0080154,
    "lon": 1.6918712,
    "region": 6
  },
  {
    "id": 18,
    "name": "Adamè Centre",
    "lat": 6.6822846,
    "lon": 1.6119876,
    "region": 9
  },
  {
    "id": 19,
    "name": "Adamè-Houeglo",
    "lat": 7.230258,
    "lon": 2.0257913,
    "region": 12
  },
  {
    "id": 20,
    "name": "Adandéhoué",
    "lat": 6.9831244,
    "lon": 1.6988962,
    "region": 6
  },
  {
    "id": 21,
    "name": "Adandro-Akodé",
    "lat": 6.7993968,
    "lon": 1.8547202,
    "region": 6
  },
  {
    "id": 22,
    "name": "Adanhondjigon",
    "lat": 7.0993952,
    "lon": 2.0184131,
    "region": 12
  },
  {
    "id": 23,
    "name": "Adankpossi",
    "lat": 6.6501158,
    "lon": 1.6637195,
    "region": 9
  },
  {
    "id": 24,
    "name": "Adanlingon",
    "lat": 7.2245602,
    "lon": 2.0128927,
    "region": 12
  },
  {
    "id": 25,
    "name": "Adanlokpé",
    "lat": 6.5859293,
    "lon": 1.6713954,
    "region": 9
  },
  {
    "id": 26,
    "name": "Adanmayi",
    "lat": 6.5519593,
    "lon": 2.5935701,
    "region": 10
  },
  {
    "id": 27,
    "name": "Adaplamè",
    "lat": 7.4522788,
    "lon": 2.5605935,
    "region": 11
  },
  {
    "id": 28,
    "name": "Adékôgon",
    "lat": 7.2124817,
    "lon": 1.9863257,
    "region": 12
  },
  {
    "id": 29,
    "name": "Adéminhoué",
    "lat": 6.5306867,
    "lon": 1.753015,
    "region": 9
  },
  {
    "id": 30,
    "name": "Adhamè",
    "lat": 6.5095799,
    "lon": 1.6960058,
    "region": 9
  },
  {
    "id": 31,
    "name": "Adidévo",
    "lat": 6.78439,
    "lon": 1.6563655,
    "region": 6
  },
  {
    "id": 32,
    "name": "Adido",
    "lat": 6.8307567,
    "lon": 2.5305998,
    "region": 10
  },
  {
    "id": 33,
    "name": "Adigbonou",
    "lat": 6.683726,
    "lon": 2.5053264,
    "region": 10
  },
  {
    "id": 34,
    "name": "Adihinlidji",
    "lat": 7.7530223,
    "lon": 2.1071655,
    "region": 5
  },
  {
    "id": 35,
    "name": "Adikou",
    "lat": 7.2644877,
    "lon": 1.9228995,
    "region": 12
  },
  {
    "id": 36,
    "name": "Adimalé",
    "lat": 6.639414,
    "lon": 2.2007344,
    "region": 3
  },
  {
    "id": 37,
    "name": "Adingnigon",
    "lat": 7.1465806,
    "lon": 2.0350961,
    "region": 12
  },
  {
    "id": 38,
    "name": "Adja",
    "lat": 7.1832587,
    "lon": 2.343573,
    "region": 12
  },
  {
    "id": 39,
    "name": "Adja-Ouèrè",
    "lat": 7.0036929,
    "lon": 2.6101941,
    "region": 11
  },
  {
    "id": 40,
    "name": "Adja-Tokpa",
    "lat": 6.4379054,
    "lon": 1.9695106,
    "region": 3
  },
  {
    "id": 41,
    "name": "Adjadangan",
    "lat": 6.6757406,
    "lon": 2.2217949,
    "region": 3
  },
  {
    "id": 42,
    "name": "Adjadji-Atinkousa",
    "lat": 6.6324442,
    "lon": 2.0384185,
    "region": 3
  },
  {
    "id": 43,
    "name": "Adjadji-Bata",
    "lat": 6.636417,
    "lon": 2.0378472,
    "region": 3
  },
  {
    "id": 44,
    "name": "Adjadji-Cossoé",
    "lat": 6.6222648,
    "lon": 2.0600277,
    "region": 3
  },
  {
    "id": 45,
    "name": "Adjadji-Zoungbomey",
    "lat": 6.64594,
    "lon": 2.0375984,
    "region": 3
  },
  {
    "id": 46,
    "name": "Adjagbo",
    "lat": 6.5250435,
    "lon": 2.3453436,
    "region": 3
  },
  {
    "id": 47,
    "name": "Adjaha",
    "lat": 6.3268302,
    "lon": 1.8353515,
    "region": 9
  },
  {
    "id": 48,
    "name": "Adjaho",
    "lat": 7.2111893,
    "lon": 1.8999217,
    "region": 12
  },
  {
    "id": 49,
    "name": "Adjahomey",
    "lat": 7.0495503,
    "lon": 1.8033153,
    "region": 6,
    "altName": "Adjahonmé"
  },
  {
    "id": 50,
    "name": "Adjakonou",
    "lat": 7.6302116,
    "lon": 2.1121254,
    "region": 5
  },
  {
    "id": 51,
    "name": "Adjakpa",
    "lat": 6.5809963,
    "lon": 2.2856229,
    "region": 3
  },
  {
    "id": 52,
    "name": "Adjakpatomè",
    "lat": 6.806871,
    "lon": 2.3323523,
    "region": 3
  },
  {
    "id": 53,
    "name": "Adjalè",
    "lat": 7.7401846,
    "lon": 2.235172,
    "region": 5
  },
  {
    "id": 54,
    "name": "Adjamè",
    "lat": 6.6449904,
    "lon": 1.9532226,
    "region": 9
  },
  {
    "id": 55,
    "name": "Adjan",
    "lat": 6.7083129,
    "lon": 2.2694066,
    "region": 3
  },
  {
    "id": 56,
    "name": "Adjanoudoho",
    "lat": 7.5913689,
    "lon": 2.2738574,
    "region": 5
  },
  {
    "id": 57,
    "name": "Adjantè",
    "lat": 8.4012623,
    "lon": 1.9005237,
    "region": 5
  },
  {
    "id": 58,
    "name": "Adjarra",
    "lat": 6.5282474,
    "lon": 2.6629455,
    "region": 10
  },
  {
    "id": 59,
    "name": "Adjassagon",
    "lat": 7.0021534,
    "lon": 1.9516879,
    "region": 6,
    "altName": "Adiassagon"
  },
  {
    "id": 60,
    "name": "Adjélémidé",
    "lat": 6.92546,
    "lon": 2.6295345,
    "region": 11
  },
  {
    "id": 61,
    "name": "Adjérékou",
    "lat": 9.2212634,
    "lon": 1.6624168,
    "region": 7
  },
  {
    "id": 62,
    "name": "Adjéwôlé",
    "lat": 8.33033,
    "lon": 1.9733977,
    "region": 5
  },
  {
    "id": 63,
    "name": "Adjibogoun",
    "lat": 7.1221331,
    "lon": 2.5593031,
    "region": 11
  },
  {
    "id": 64,
    "name": "Adjido",
    "lat": 6.5845888,
    "lon": 2.4964814,
    "region": 10
  },
  {
    "id": 65,
    "name": "Adjimè",
    "lat": 7.0828107,
    "lon": 2.0830692,
    "region": 12
  },
  {
    "id": 66,
    "name": "Adjintimey",
    "lat": 6.8317995,
    "lon": 1.6779543,
    "region": 6
  },
  {
    "id": 67,
    "name": "Adjogansa",
    "lat": 6.5770844,
    "lon": 2.3299519,
    "region": 3
  },
  {
    "id": 68,
    "name": "Adjohoun",
    "lat": 6.717471,
    "lon": 2.4773959,
    "region": 10
  },
  {
    "id": 69,
    "name": "Adjovè",
    "lat": 6.5693016,
    "lon": 1.6981599,
    "region": 9
  },
  {
    "id": 70,
    "name": "Adjrako",
    "lat": 6.6145045,
    "lon": 2.2813083,
    "region": 3
  },
  {
    "id": 71,
    "name": "Adogbé",
    "lat": 7.2230773,
    "lon": 2.3432616,
    "region": 12
  },
  {
    "id": 72,
    "name": "Adohoun",
    "lat": 6.6573668,
    "lon": 1.6573001,
    "region": 9
  },
  {
    "id": 73,
    "name": "Adounko",
    "lat": 6.3452734,
    "lon": 2.2886163,
    "region": 3
  },
  {
    "id": 74,
    "name": "Adounko Daho",
    "lat": 6.3537079,
    "lon": 2.2779142,
    "region": 3
  },
  {
    "id": 75,
    "name": "Adourékoman",
    "lat": 7.9154348,
    "lon": 2.2742659,
    "region": 5
  },
  {
    "id": 76,
    "name": "Adovié",
    "lat": 6.4218961,
    "lon": 2.2555033,
    "region": 3
  },
  {
    "id": 77,
    "name": "Adzohouè-Aliho",
    "lat": 6.585618,
    "lon": 2.1252297,
    "region": 3
  },
  {
    "id": 78,
    "name": "Afatalanga",
    "lat": 9.6857721,
    "lon": 1.7483964,
    "region": 7
  },
  {
    "id": 79,
    "name": "Affamè",
    "lat": 6.8235981,
    "lon": 2.4730911,
    "region": 10
  },
  {
    "id": 80,
    "name": "Affèssèda",
    "lat": 6.9221748,
    "lon": 2.6100682,
    "region": 11
  },
  {
    "id": 81,
    "name": "Affomadjè-Kada",
    "lat": 6.6081567,
    "lon": 2.640049,
    "region": 10
  },
  {
    "id": 82,
    "name": "Affon",
    "lat": 9.7482769,
    "lon": 2.0921004,
    "region": 7
  },
  {
    "id": 83,
    "name": "Affossawogba",
    "lat": 7.3073782,
    "lon": 2.1317661,
    "region": 12
  },
  {
    "id": 84,
    "name": "Afikôè",
    "lat": 6.9243708,
    "lon": 1.6643916,
    "region": 6
  },
  {
    "id": 85,
    "name": "Aflantan",
    "lat": 6.9828459,
    "lon": 1.6609401,
    "region": 6
  },
  {
    "id": 86,
    "name": "Aga",
    "lat": 7.1823533,
    "lon": 2.3405235,
    "region": 12
  },
  {
    "id": 87,
    "name": "Agadji",
    "lat": 7.1209939,
    "lon": 2.1494392,
    "region": 12
  },
  {
    "id": 88,
    "name": "Agaga",
    "lat": 7.0765201,
    "lon": 2.1210193,
    "region": 12
  },
  {
    "id": 89,
    "name": "Agamadin",
    "lat": 6.585201,
    "lon": 2.6636853,
    "region": 10
  },
  {
    "id": 90,
    "name": "Agame",
    "lat": 6.725845,
    "lon": 1.766372,
    "region": 9
  },
  {
    "id": 91,
    "name": "Agangannou",
    "lat": 6.7354059,
    "lon": 2.4301065,
    "region": 3
  },
  {
    "id": 92,
    "name": "Agao",
    "lat": 7.7307745,
    "lon": 2.3050442,
    "region": 5
  },
  {
    "id": 93,
    "name": "Agassa-Godomey",
    "lat": 6.5425897,
    "lon": 2.3613218,
    "region": 3
  },
  {
    "id": 94,
    "name": "Agassata",
    "lat": 6.6313493,
    "lon": 2.199054,
    "region": 3
  },
  {
    "id": 95,
    "name": "Agatogbo",
    "lat": 6.4018183,
    "lon": 1.9221955,
    "region": 9
  },
  {
    "id": 96,
    "name": "Agbadjèdo",
    "lat": 6.5927786,
    "lon": 2.6808572,
    "region": 11
  },
  {
    "id": 97,
    "name": "Agbadjègon",
    "lat": 7.4721597,
    "lon": 2.1550396,
    "region": 12
  },
  {
    "id": 98,
    "name": "Agbagbadji",
    "lat": 8.3368252,
    "lon": 2.1549398,
    "region": 5
  },
  {
    "id": 99,
    "name": "Agbagoulè",
    "lat": 7.9017896,
    "lon": 2.3210321,
    "region": 5
  },
  {
    "id": 100,
    "name": "Agbalagbadji",
    "lat": 8.3139011,
    "lon": 2.3120266,
    "region": 5
  },
  {
    "id": 101,
    "name": "Agbandonou",
    "lat": 6.6540453,
    "lon": 2.2783814,
    "region": 3
  },
  {
    "id": 102,
    "name": "Agbangandan",
    "lat": 6.3763768,
    "lon": 2.490313,
    "region": 10
  },
  {
    "id": 103,
    "name": "Agbangnizoun",
    "lat": 7.075825,
    "lon": 1.9705679,
    "region": 12
  },
  {
    "id": 104,
    "name": "Agbannaté",
    "lat": 7.0977424,
    "lon": 1.6825334,
    "region": 6
  },
  {
    "id": 105,
    "name": "Agbanou",
    "lat": 6.6823119,
    "lon": 2.0879606,
    "region": 3
  },
  {
    "id": 106,
    "name": "Agbanta",
    "lat": 6.6179998,
    "lon": 2.4478902,
    "region": 10
  },
  {
    "id": 107,
    "name": "Agbanto",
    "lat": 6.3899144,
    "lon": 1.9464601,
    "region": 3
  },
  {
    "id": 108,
    "name": "Agbantokpa",
    "lat": 6.6314395,
    "lon": 2.1958405,
    "region": 3
  },
  {
    "id": 109,
    "name": "Agbanzin-Kpota",
    "lat": 6.3540704,
    "lon": 2.2065568,
    "region": 3,
    "altName": "Agbanzinkpota"
  },
  {
    "id": 110,
    "name": "Agbassato",
    "lat": 6.6556526,
    "lon": 2.1010669,
    "region": 3
  },
  {
    "id": 111,
    "name": "Agbata",
    "lat": 6.8156801,
    "lon": 2.3454563,
    "region": 3
  },
  {
    "id": 112,
    "name": "Agbata-Wédji",
    "lat": 6.8218617,
    "lon": 2.3357659,
    "region": 3
  },
  {
    "id": 113,
    "name": "Agbé",
    "lat": 7.2330258,
    "lon": 1.9519261,
    "region": 12
  },
  {
    "id": 114,
    "name": "Agbédranfo",
    "lat": 6.8929781,
    "lon": 1.7116976,
    "region": 6
  },
  {
    "id": 115,
    "name": "Agbégnidohoué",
    "lat": 6.7990775,
    "lon": 1.8108945,
    "region": 6
  },
  {
    "id": 116,
    "name": "Agblokpa",
    "lat": 7.2377217,
    "lon": 2.058321,
    "region": 12
  },
  {
    "id": 117,
    "name": "Agbobada",
    "lat": 6.5853529,
    "lon": 1.698488,
    "region": 9
  },
  {
    "id": 118,
    "name": "Agbodji",
    "lat": 6.6452047,
    "lon": 1.9811572,
    "region": 9
  },
  {
    "id": 119,
    "name": "Agbodokomè",
    "lat": 6.685681,
    "lon": 2.4124992,
    "region": 3
  },
  {
    "id": 120,
    "name": "Agbogbohonou",
    "lat": 7.1045912,
    "lon": 2.1190386,
    "region": 12
  },
  {
    "id": 121,
    "name": "Agbogbomè",
    "lat": 7.5849831,
    "lon": 2.4697701,
    "region": 5
  },
  {
    "id": 122,
    "name": "Agbogbomey",
    "lat": 6.6489335,
    "lon": 1.620096,
    "region": 9
  },
  {
    "id": 123,
    "name": "Agbogon",
    "lat": 7.1011828,
    "lon": 2.5504428,
    "region": 11
  },
  {
    "id": 124,
    "name": "Agboh",
    "lat": 6.6717697,
    "lon": 1.9859827,
    "region": 9
  },
  {
    "id": 125,
    "name": "Agbohougoton",
    "lat": 7.3448572,
    "lon": 2.0717574,
    "region": 12
  },
  {
    "id": 126,
    "name": "Agbohounsou",
    "lat": 6.705388,
    "lon": 2.3856927,
    "region": 3
  },
  {
    "id": 127,
    "name": "Agbokou",
    "lat": 6.5991141,
    "lon": 2.6631309,
    "region": 11
  },
  {
    "id": 128,
    "name": "Agbokougon",
    "lat": 7.2255807,
    "lon": 1.974712,
    "region": 12
  },
  {
    "id": 129,
    "name": "Agbokpa",
    "lat": 7.2145104,
    "lon": 2.0232997,
    "region": 12
  },
  {
    "id": 130,
    "name": "Agbomahan",
    "lat": 6.8786451,
    "lon": 2.5097524,
    "region": 10
  },
  {
    "id": 131,
    "name": "Agbomassè",
    "lat": 6.5796835,
    "lon": 2.6698967,
    "region": 10
  },
  {
    "id": 132,
    "name": "Agbon",
    "lat": 8.1439935,
    "lon": 1.9674107,
    "region": 5
  },
  {
    "id": 133,
    "name": "Agbondjèdo",
    "lat": 7.6974995,
    "lon": 2.3346906,
    "region": 5
  },
  {
    "id": 134,
    "name": "Agbonou",
    "lat": 6.6231584,
    "lon": 2.4722778,
    "region": 10
  },
  {
    "id": 135,
    "name": "Agbontê",
    "lat": 10.2549435,
    "lon": 0.990949,
    "region": 2
  },
  {
    "id": 136,
    "name": "Agboro-Idouya",
    "lat": 8.438441,
    "lon": 2.5789828,
    "region": 5
  },
  {
    "id": 137,
    "name": "Agboro-Kombon",
    "lat": 8.459682,
    "lon": 2.5921084,
    "region": 5
  },
  {
    "id": 138,
    "name": "Agbossassa",
    "lat": 7.5877229,
    "lon": 2.5279638,
    "region": 11
  },
  {
    "id": 139,
    "name": "Agbosso",
    "lat": 6.8297597,
    "lon": 2.4715704,
    "region": 10
  },
  {
    "id": 140,
    "name": "Agbotavou",
    "lat": 7.2862026,
    "lon": 1.6513034,
    "region": 6
  },
  {
    "id": 141,
    "name": "Aglangbin",
    "lat": 6.831854,
    "lon": 2.4343338,
    "region": 3
  },
  {
    "id": 142,
    "name": "Aglanzan",
    "lat": 6.6639668,
    "lon": 2.4711305,
    "region": 10
  },
  {
    "id": 143,
    "name": "Aglogbè",
    "lat": 6.4825959,
    "lon": 2.6725745,
    "region": 10
  },
  {
    "id": 144,
    "name": "Agnankpo",
    "lat": 6.6626451,
    "lon": 2.4758117,
    "region": 10
  },
  {
    "id": 145,
    "name": "Agnavo",
    "lat": 6.7449938,
    "lon": 1.6848232,
    "region": 6
  },
  {
    "id": 146,
    "name": "Agniwédji",
    "lat": 6.5722758,
    "lon": 1.6679965,
    "region": 9
  },
  {
    "id": 147,
    "name": "Agodénou",
    "lat": 6.7060878,
    "lon": 2.3751023,
    "region": 3
  },
  {
    "id": 148,
    "name": "Agodogoué",
    "lat": 7.3324089,
    "lon": 1.6509114,
    "region": 6,
    "altName": "Agondogoui"
  },
  {
    "id": 149,
    "name": "Agohoué-Balimey",
    "lat": 6.8077291,
    "lon": 1.6587852,
    "region": 6
  },
  {
    "id": 150,
    "name": "Agoïta",
    "lat": 7.0542637,
    "lon": 2.3160482,
    "region": 12
  },
  {
    "id": 151,
    "name": "Agondji",
    "lat": 7.2370121,
    "lon": 2.0474132,
    "region": 12
  },
  {
    "id": 152,
    "name": "Agondokpo",
    "lat": 7.7540829,
    "lon": 2.3840471,
    "region": 5
  },
  {
    "id": 153,
    "name": "Agondokpoé",
    "lat": 6.70144,
    "lon": 2.1020088,
    "region": 3
  },
  {
    "id": 154,
    "name": "Agondotan",
    "lat": 6.6492308,
    "lon": 2.3134192,
    "region": 3
  },
  {
    "id": 155,
    "name": "Agondozoun",
    "lat": 6.5906272,
    "lon": 2.5614928,
    "region": 10
  },
  {
    "id": 156,
    "name": "Agondozoun-Tanmè",
    "lat": 6.5822206,
    "lon": 2.5692924,
    "region": 10
  },
  {
    "id": 157,
    "name": "Agongblamey",
    "lat": 6.662359,
    "lon": 2.1104796,
    "region": 3
  },
  {
    "id": 158,
    "name": "Agongbo",
    "lat": 6.7319627,
    "lon": 2.3919117,
    "region": 3
  },
  {
    "id": 159,
    "name": "Agongbodji",
    "lat": 7.2353743,
    "lon": 2.4983509,
    "region": 11
  },
  {
    "id": 160,
    "name": "Agongni",
    "lat": 8.3783075,
    "lon": 1.7917367,
    "region": 5
  },
  {
    "id": 161,
    "name": "Agongo",
    "lat": 6.3834726,
    "lon": 2.6182115,
    "region": 10
  },
  {
    "id": 162,
    "name": "Agongoh",
    "lat": 6.6180368,
    "lon": 1.9077776,
    "region": 9
  },
  {
    "id": 163,
    "name": "Agongointo",
    "lat": 7.1895956,
    "lon": 2.0832803,
    "region": 12
  },
  {
    "id": 164,
    "name": "Agonguè",
    "lat": 6.6167157,
    "lon": 2.4760866,
    "region": 10
  },
  {
    "id": 165,
    "name": "Agonhoui",
    "lat": 6.8791345,
    "lon": 2.52957,
    "region": 10
  },
  {
    "id": 166,
    "name": "Agonkanmè",
    "lat": 6.3919171,
    "lon": 1.9949681,
    "region": 3
  },
  {
    "id": 167,
    "name": "Agonkon",
    "lat": 6.8957146,
    "lon": 2.5019977,
    "region": 10
  },
  {
    "id": 168,
    "name": "Agonlin",
    "lat": 6.9979282,
    "lon": 2.0546951,
    "region": 12
  },
  {
    "id": 169,
    "name": "Agonlin-Hlankpa",
    "lat": 6.7687493,
    "lon": 2.4331858,
    "region": 3
  },
  {
    "id": 170,
    "name": "Agonlin-Houégbo",
    "lat": 7.2269903,
    "lon": 2.3992494,
    "region": 12
  },
  {
    "id": 171,
    "name": "Agonmè",
    "lat": 7.1265118,
    "lon": 2.1527236,
    "region": 12
  },
  {
    "id": 172,
    "name": "Agonmey",
    "lat": 6.550506,
    "lon": 2.3378201,
    "region": 3
  },
  {
    "id": 173,
    "name": "Agonsoudja",
    "lat": 6.5633504,
    "lon": 2.3467025,
    "region": 3
  },
  {
    "id": 174,
    "name": "Agori",
    "lat": 6.4482764,
    "lon": 2.3478511,
    "region": 3
  },
  {
    "id": 175,
    "name": "Agorogossi",
    "lat": 9.9155465,
    "lon": 1.7572606,
    "region": 7
  },
  {
    "id": 176,
    "name": "Agoua",
    "lat": 8.2919287,
    "lon": 1.9611894,
    "region": 5
  },
  {
    "id": 177,
    "name": "Agouagon",
    "lat": 7.9789446,
    "lon": 2.2935676,
    "region": 5
  },
  {
    "id": 178,
    "name": "Agouagon-Gnonnougon",
    "lat": 7.9826546,
    "lon": 2.3487099,
    "region": 5
  },
  {
    "id": 179,
    "name": "Agoué",
    "lat": 6.2501924,
    "lon": 1.6816807,
    "region": 9
  },
  {
    "id": 180,
    "name": "Agoué-Gbédjin",
    "lat": 6.245777,
    "lon": 1.6642249,
    "region": 9
  },
  {
    "id": 181,
    "name": "Agouna",
    "lat": 7.5645454,
    "lon": 1.7012644,
    "region": 12
  },
  {
    "id": 182,
    "name": "Agoundji",
    "lat": 6.8554043,
    "lon": 2.3647256,
    "region": 3
  },
  {
    "id": 183,
    "name": "Agovié",
    "lat": 6.6824623,
    "lon": 2.1027209,
    "region": 3
  },
  {
    "id": 184,
    "name": "Agramarou",
    "lat": 9.0458703,
    "lon": 2.3922983,
    "region": 4
  },
  {
    "id": 185,
    "name": "Agué-Gbagodo",
    "lat": 6.6745702,
    "lon": 2.4793168,
    "region": 10
  },
  {
    "id": 186,
    "name": "Agué-Milahin",
    "lat": 6.6731235,
    "lon": 2.4805479,
    "region": 10
  },
  {
    "id": 187,
    "name": "Aguégués",
    "lat": 6.4533468,
    "lon": 2.543644,
    "region": 10
  },
  {
    "id": 188,
    "name": "Aguiakpa",
    "lat": 6.7425734,
    "lon": 2.351101,
    "region": 3
  },
  {
    "id": 189,
    "name": "Aguinhoué",
    "lat": 6.8177987,
    "lon": 1.7750812,
    "region": 6
  },
  {
    "id": 190,
    "name": "Ahahonto",
    "lat": 6.4687617,
    "lon": 2.2792012,
    "region": 3
  },
  {
    "id": 191,
    "name": "Ahicon",
    "lat": 7.072134,
    "lon": 2.5073782,
    "region": 12
  },
  {
    "id": 192,
    "name": "Ahigon",
    "lat": 6.5617329,
    "lon": 2.6747377,
    "region": 10
  },
  {
    "id": 193,
    "name": "Ahito",
    "lat": 7.102131,
    "lon": 2.0211658,
    "region": 12
  },
  {
    "id": 194,
    "name": "Ahitomè",
    "lat": 6.7344838,
    "lon": 2.4808323,
    "region": 10
  },
  {
    "id": 195,
    "name": "Ahlan",
    "lat": 7.2152681,
    "lon": 2.4701156,
    "region": 12
  },
  {
    "id": 196,
    "name": "Ahlomè",
    "lat": 6.4259335,
    "lon": 2.6551294,
    "region": 10
  },
  {
    "id": 197,
    "name": "Ahloumè",
    "lat": 6.6917727,
    "lon": 1.8664774,
    "region": 9
  },
  {
    "id": 198,
    "name": "Ahoho",
    "lat": 6.604374,
    "lon": 1.6277213,
    "region": 9
  },
  {
    "id": 199,
    "name": "Aholouyèmè",
    "lat": 6.4291746,
    "lon": 2.5651038,
    "region": 10
  },
  {
    "id": 200,
    "name": "Ahomey",
    "lat": 6.800915,
    "lon": 1.7434051,
    "region": 6
  },
  {
    "id": 201,
    "name": "Ahossougbéta",
    "lat": 6.4639602,
    "lon": 2.3171654,
    "region": 3
  },
  {
    "id": 202,
    "name": "Ahota",
    "lat": 6.7184764,
    "lon": 2.0981382,
    "region": 3
  },
  {
    "id": 203,
    "name": "Ahouadanou",
    "lat": 7.2139368,
    "lon": 2.0810892,
    "region": 12
  },
  {
    "id": 204,
    "name": "Ahouandjannafon",
    "lat": 6.6760565,
    "lon": 2.4739957,
    "region": 10
  },
  {
    "id": 205,
    "name": "Ahouandji",
    "lat": 6.3394797,
    "lon": 2.1610243,
    "region": 3
  },
  {
    "id": 206,
    "name": "Ahouandjigo-Codji",
    "lat": 6.3888004,
    "lon": 1.9407573,
    "region": 9
  },
  {
    "id": 207,
    "name": "Ahouango",
    "lat": 6.5762693,
    "lon": 1.9956815,
    "region": 3
  },
  {
    "id": 208,
    "name": "Ahouannonzoun",
    "lat": 6.721615,
    "lon": 2.1953885,
    "region": 3
  },
  {
    "id": 209,
    "name": "Ahouanzonmè",
    "lat": 6.9251085,
    "lon": 2.4351239,
    "region": 10
  },
  {
    "id": 210,
    "name": "Ahouato",
    "lat": 6.4192617,
    "lon": 2.2744568,
    "region": 3
  },
  {
    "id": 211,
    "name": "Ahoundomè",
    "lat": 7.0794096,
    "lon": 2.0955256,
    "region": 12
  },
  {
    "id": 212,
    "name": "Ahovo",
    "lat": 6.5662132,
    "lon": 2.6372243,
    "region": 10
  },
  {
    "id": 213,
    "name": "Ahowégodo",
    "lat": 6.7007653,
    "lon": 2.3528028,
    "region": 3
  },
  {
    "id": 214,
    "name": "Ahôzon",
    "lat": 6.3803859,
    "lon": 2.1840048,
    "region": 3
  },
  {
    "id": 215,
    "name": "Ahozonnoudé",
    "lat": 6.8140906,
    "lon": 2.3760136,
    "region": 3
  },
  {
    "id": 216,
    "name": "Ahozoun",
    "lat": 7.2795496,
    "lon": 2.0319972,
    "region": 12
  },
  {
    "id": 217,
    "name": "Ahwouakanmè",
    "lat": 7.2300802,
    "lon": 1.9082739,
    "region": 12
  },
  {
    "id": 218,
    "name": "Aïdégbè",
    "lat": 6.7665972,
    "lon": 2.4311616,
    "region": 3
  },
  {
    "id": 219,
    "name": "Aïdjèdo",
    "lat": 6.7551105,
    "lon": 2.481153,
    "region": 10
  },
  {
    "id": 220,
    "name": "Aïdjesso",
    "lat": 8.0057675,
    "lon": 2.1980502,
    "region": 5
  },
  {
    "id": 221,
    "name": "Aïdo Village",
    "lat": 6.3182751,
    "lon": 2.0044847,
    "region": 3
  },
  {
    "id": 222,
    "name": "Aïdotégon",
    "lat": 7.214422,
    "lon": 1.9922946,
    "region": 12
  },
  {
    "id": 223,
    "name": "Aifa",
    "lat": 6.7927612,
    "lon": 2.2771434,
    "region": 3
  },
  {
    "id": 224,
    "name": "Aïgbani",
    "lat": 9.4620586,
    "lon": 1.5315804,
    "region": 7
  },
  {
    "id": 225,
    "name": "Aïhouidji",
    "lat": 7.2766594,
    "lon": 2.0281825,
    "region": 12
  },
  {
    "id": 226,
    "name": "Aïnahoué",
    "lat": 6.8220658,
    "lon": 1.6776921,
    "region": 6
  },
  {
    "id": 227,
    "name": "Aïssanhoué",
    "lat": 6.9379083,
    "lon": 1.7372716,
    "region": 6
  },
  {
    "id": 228,
    "name": "Aïtchédji",
    "lat": 6.4559183,
    "lon": 2.3375234,
    "region": 3
  },
  {
    "id": 229,
    "name": "Akadjamè",
    "lat": 6.4719523,
    "lon": 2.1877994,
    "region": 3
  },
  {
    "id": 230,
    "name": "Akao",
    "lat": 8.7072225,
    "lon": 1.6464214,
    "region": 7
  },
  {
    "id": 231,
    "name": "Akaradè",
    "lat": 9.3460105,
    "lon": 1.42355,
    "region": 7
  },
  {
    "id": 232,
    "name": "Akassato",
    "lat": 6.5073708,
    "lon": 2.365643,
    "region": 3
  },
  {
    "id": 233,
    "name": "Akassato Centre",
    "lat": 6.5051306,
    "lon": 2.3590552,
    "region": 3
  },
  {
    "id": 234,
    "name": "Akèkèrou",
    "lat": 9.7259399,
    "lon": 1.9874831,
    "region": 7
  },
  {
    "id": 235,
    "name": "Akémé",
    "lat": 7.0001488,
    "lon": 1.6617327,
    "region": 6
  },
  {
    "id": 236,
    "name": "Akinkonvi",
    "lat": 6.6960542,
    "lon": 2.4379079,
    "region": 3
  },
  {
    "id": 237,
    "name": "Akiza",
    "lat": 6.9717997,
    "lon": 2.0420135,
    "region": 12
  },
  {
    "id": 238,
    "name": "Aklakou",
    "lat": 6.3711699,
    "lon": 2.2746602,
    "region": 3
  },
  {
    "id": 239,
    "name": "Aklampa",
    "lat": 8.218688,
    "lon": 2.185473,
    "region": 5,
    "altName": "Aklanpa"
  },
  {
    "id": 240,
    "name": "Akoba",
    "lat": 7.8592795,
    "lon": 2.3395069,
    "region": 5
  },
  {
    "id": 241,
    "name": "Akodébakou",
    "lat": 6.8943923,
    "lon": 1.6721648,
    "region": 6
  },
  {
    "id": 242,
    "name": "Akodeha",
    "lat": 6.4586128,
    "lon": 1.9179378,
    "region": 9
  },
  {
    "id": 243,
    "name": "Akoffodjoulé",
    "lat": 7.7567413,
    "lon": 2.3741621,
    "region": 5
  },
  {
    "id": 244,
    "name": "Akoïtchaou",
    "lat": 11.3854231,
    "lon": 3.1147528,
    "region": 1
  },
  {
    "id": 245,
    "name": "Akokponawa",
    "lat": 6.4894727,
    "lon": 2.2227556,
    "region": 3
  },
  {
    "id": 246,
    "name": "Akonana",
    "lat": 6.5210352,
    "lon": 1.7653763,
    "region": 9
  },
  {
    "id": 247,
    "name": "Akossavié",
    "lat": 6.4006749,
    "lon": 2.2506399,
    "region": 3
  },
  {
    "id": 248,
    "name": "Akouèdjromèdé",
    "lat": 6.6676283,
    "lon": 2.2858967,
    "region": 3
  },
  {
    "id": 249,
    "name": "Akouègba",
    "lat": 7.8679067,
    "lon": 2.2360304,
    "region": 5
  },
  {
    "id": 250,
    "name": "Akouèhan-Tohouè",
    "lat": 6.6564863,
    "lon": 2.4969058,
    "region": 10
  },
  {
    "id": 251,
    "name": "Akouèkouèkanmè",
    "lat": 6.6615675,
    "lon": 2.494788,
    "region": 10
  },
  {
    "id": 252,
    "name": "Akouessa",
    "lat": 7.2498501,
    "lon": 1.9274524,
    "region": 12
  },
  {
    "id": 253,
    "name": "Akoundanmon",
    "lat": 8.8493029,
    "lon": 2.5597986,
    "region": 4
  },
  {
    "id": 254,
    "name": "Akpadanou",
    "lat": 6.7730566,
    "lon": 2.4789807,
    "region": 10
  },
  {
    "id": 255,
    "name": "Akpadon",
    "lat": 6.5211599,
    "lon": 2.5405309,
    "region": 10
  },
  {
    "id": 256,
    "name": "Akpaka",
    "lat": 8.3049315,
    "lon": 1.8542262,
    "region": 5
  },
  {
    "id": 257,
    "name": "Akpakanmè",
    "lat": 6.5676314,
    "lon": 2.6018205,
    "region": 10
  },
  {
    "id": 258,
    "name": "Akpakihoué",
    "lat": 7.6113342,
    "lon": 2.3748531,
    "region": 5
  },
  {
    "id": 259,
    "name": "Akpakli",
    "lat": 7.5410644,
    "lon": 1.7708499,
    "region": 12
  },
  {
    "id": 260,
    "name": "Akpali",
    "lat": 6.7132339,
    "lon": 2.3236033,
    "region": 3
  },
  {
    "id": 261,
    "name": "Akpali-Do",
    "lat": 6.720077,
    "lon": 2.3314852,
    "region": 3
  },
  {
    "id": 262,
    "name": "Akpamé Zounmè",
    "lat": 6.5448525,
    "lon": 2.5567226,
    "region": 10
  },
  {
    "id": 263,
    "name": "Akpamè-Vèvi",
    "lat": 6.5468706,
    "lon": 2.5595837,
    "region": 10
  },
  {
    "id": 264,
    "name": "Akpari-Arobassa",
    "lat": 7.8150582,
    "lon": 2.0715815,
    "region": 5
  },
  {
    "id": 265,
    "name": "Akpassi",
    "lat": 8.4423589,
    "lon": 1.8848208,
    "region": 5
  },
  {
    "id": 266,
    "name": "Akpého-Dokpa",
    "lat": 7.0866969,
    "lon": 1.9747804,
    "region": 12
  },
  {
    "id": 267,
    "name": "Akpéro",
    "lat": 8.624829,
    "lon": 2.5706902,
    "region": 5
  },
  {
    "id": 268,
    "name": "Akplènou",
    "lat": 6.7651067,
    "lon": 1.9618763,
    "region": 6
  },
  {
    "id": 269,
    "name": "Akpo",
    "lat": 6.7588969,
    "lon": 2.477963,
    "region": 10
  },
  {
    "id": 270,
    "name": "Akpomey",
    "lat": 6.7764967,
    "lon": 2.4301044,
    "region": 3
  },
  {
    "id": 271,
    "name": "Akpro-Hanzounmè",
    "lat": 6.5609843,
    "lon": 2.5800766,
    "region": 10
  },
  {
    "id": 272,
    "name": "Akpro-Missérété",
    "lat": 6.5584963,
    "lon": 2.5893397,
    "region": 10,
    "altName": "Agpro-Missérété"
  },
  {
    "id": 273,
    "name": "Alafiarou",
    "lat": 9.0277064,
    "lon": 2.4037421,
    "region": 4
  },
  {
    "id": 274,
    "name": "Alafiarou-Gandi",
    "lat": 10.3364886,
    "lon": 3.2172453,
    "region": 4
  },
  {
    "id": 275,
    "name": "Alagba",
    "lat": 7.125649,
    "lon": 2.0016654,
    "region": 12
  },
  {
    "id": 276,
    "name": "Alagbèdè",
    "lat": 7.3736405,
    "lon": 2.661714,
    "region": 11
  },
  {
    "id": 277,
    "name": "Alawa",
    "lat": 6.5722763,
    "lon": 2.6505535,
    "region": 10
  },
  {
    "id": 278,
    "name": "Aledjo-Koura",
    "lat": 9.3456334,
    "lon": 1.4426657,
    "region": 7
  },
  {
    "id": 279,
    "name": "Alétan",
    "lat": 8.2403952,
    "lon": 1.7304844,
    "region": 5
  },
  {
    "id": 280,
    "name": "Alfa Pèhoun",
    "lat": 9.6682178,
    "lon": 1.6997688,
    "region": 7
  },
  {
    "id": 281,
    "name": "Alfa-Kpara",
    "lat": 9.6139125,
    "lon": 1.7700552,
    "region": 7
  },
  {
    "id": 282,
    "name": "Alfakoara",
    "lat": 11.4439276,
    "lon": 3.0760178,
    "region": 1
  },
  {
    "id": 283,
    "name": "Alibori B",
    "lat": 11.2453293,
    "lon": 2.650605,
    "region": 1
  },
  {
    "id": 284,
    "name": "Aligodo",
    "lat": 6.8438198,
    "lon": 2.5632223,
    "region": 10
  },
  {
    "id": 285,
    "name": "Aligoudo",
    "lat": 6.7709334,
    "lon": 2.1631579,
    "region": 3
  },
  {
    "id": 286,
    "name": "Alikpa",
    "lat": 7.1758876,
    "lon": 2.1001686,
    "region": 12
  },
  {
    "id": 287,
    "name": "Allada",
    "lat": 6.6658411,
    "lon": 2.1511876,
    "region": 3,
    "altName": "Alada"
  },
  {
    "id": 288,
    "name": "Alladacomè",
    "lat": 6.5934425,
    "lon": 2.3155217,
    "region": 3
  },
  {
    "id": 289,
    "name": "Alladaho",
    "lat": 7.1002752,
    "lon": 2.1106464,
    "region": 12
  },
  {
    "id": 290,
    "name": "Allagba",
    "lat": 6.6582112,
    "lon": 2.5858432,
    "region": 10
  },
  {
    "id": 291,
    "name": "Allahé",
    "lat": 7.164983,
    "lon": 2.259879,
    "region": 12
  },
  {
    "id": 292,
    "name": "Allandohou",
    "lat": 6.7753815,
    "lon": 2.4656014,
    "region": 10
  },
  {
    "id": 293,
    "name": "Allandohou-Sèkodji",
    "lat": 6.7795984,
    "lon": 2.4845598,
    "region": 10
  },
  {
    "id": 294,
    "name": "Allankpon",
    "lat": 6.8358175,
    "lon": 2.5404598,
    "region": 10
  },
  {
    "id": 295,
    "name": "Allanwadan",
    "lat": 6.596569,
    "lon": 2.4344121,
    "region": 3
  },
  {
    "id": 296,
    "name": "Allanzounmè",
    "lat": 6.7197055,
    "lon": 2.4787405,
    "region": 10
  },
  {
    "id": 297,
    "name": "Allikpa",
    "lat": 7.1007682,
    "lon": 2.0154438,
    "region": 12
  },
  {
    "id": 298,
    "name": "Allomankanmè",
    "lat": 7.1988144,
    "lon": 1.9561862,
    "region": 12
  },
  {
    "id": 299,
    "name": "Allongo",
    "lat": 6.2905511,
    "lon": 1.8856997,
    "region": 9
  },
  {
    "id": 300,
    "name": "Aloba",
    "lat": 8.1480834,
    "lon": 1.9054499,
    "region": 5
  },
  {
    "id": 301,
    "name": "Amadou-Kpara",
    "lat": 9.2544616,
    "lon": 2.3849599,
    "region": 4
  },
  {
    "id": 302,
    "name": "Amahoué",
    "lat": 6.8357623,
    "lon": 1.7705458,
    "region": 6
  },
  {
    "id": 303,
    "name": "Amakpa",
    "lat": 7.4676469,
    "lon": 1.7997241,
    "region": 12
  },
  {
    "id": 304,
    "name": "Amanhoungavissa",
    "lat": 8.1522433,
    "lon": 2.1411271,
    "region": 5
  },
  {
    "id": 305,
    "name": "Amankin",
    "lat": 10.9948356,
    "lon": 2.2145712,
    "region": 2
  },
  {
    "id": 306,
    "name": "Amikpémihoué",
    "lat": 6.7680751,
    "lon": 2.167254,
    "region": 3
  },
  {
    "id": 307,
    "name": "Aminonhoué",
    "lat": 6.7627864,
    "lon": 2.4778875,
    "region": 10
  },
  {
    "id": 308,
    "name": "Amohonou",
    "lat": 6.7568763,
    "lon": 2.4303145,
    "region": 3
  },
  {
    "id": 309,
    "name": "Amouloko",
    "lat": 6.636209,
    "lon": 2.5985591,
    "region": 11
  },
  {
    "id": 310,
    "name": "Anagbo",
    "lat": 6.6874872,
    "lon": 2.3391751,
    "region": 3
  },
  {
    "id": 311,
    "name": "Anandana",
    "lat": 9.944461,
    "lon": 1.394184,
    "region": 7
  },
  {
    "id": 312,
    "name": "Ananinga",
    "lat": 9.7169354,
    "lon": 1.905504,
    "region": 7
  },
  {
    "id": 313,
    "name": "Anatohoué",
    "lat": 6.6695242,
    "lon": 1.6290789,
    "region": 9
  },
  {
    "id": 314,
    "name": "Anfin",
    "lat": 7.6377985,
    "lon": 1.7328004,
    "region": 12
  },
  {
    "id": 315,
    "name": "Angara",
    "lat": 9.7846716,
    "lon": 1.7465707,
    "region": 7
  },
  {
    "id": 316,
    "name": "Angaradébou",
    "lat": 10.2789399,
    "lon": 3.2406678,
    "region": 4
  },
  {
    "id": 317,
    "name": "Angué",
    "lat": 9.9650549,
    "lon": 1.6674941,
    "region": 2
  },
  {
    "id": 318,
    "name": "Anianlin",
    "lat": 6.6198803,
    "lon": 2.5941689,
    "region": 10
  },
  {
    "id": 319,
    "name": "Aniviécomè",
    "lat": 6.4473968,
    "lon": 2.542011,
    "region": 10
  },
  {
    "id": 320,
    "name": "Aniviékomè",
    "lat": 6.4462074,
    "lon": 2.5427048,
    "region": 10
  },
  {
    "id": 321,
    "name": "Anondjigon",
    "lat": 7.1683527,
    "lon": 1.8726928,
    "region": 12
  },
  {
    "id": 322,
    "name": "Anoum",
    "lat": 9.7008697,
    "lon": 1.4946754,
    "region": 7
  },
  {
    "id": 323,
    "name": "Ansêkê",
    "lat": 8.4253831,
    "lon": 2.5990522,
    "region": 5
  },
  {
    "id": 324,
    "name": "Antadji",
    "lat": 8.2192157,
    "lon": 2.0921567,
    "region": 5
  },
  {
    "id": 325,
    "name": "Aoro-Lokpa",
    "lat": 8.8327432,
    "lon": 1.6511432,
    "region": 7
  },
  {
    "id": 326,
    "name": "Aoro-Nago",
    "lat": 8.8341565,
    "lon": 1.6508601,
    "region": 7
  },
  {
    "id": 327,
    "name": "Aota",
    "lat": 6.6540328,
    "lon": 2.0981629,
    "region": 3
  },
  {
    "id": 328,
    "name": "Aouignangon",
    "lat": 7.5427575,
    "lon": 1.8775381,
    "region": 12
  },
  {
    "id": 329,
    "name": "Aoutonou",
    "lat": 6.668428,
    "lon": 2.160071,
    "region": 3
  },
  {
    "id": 330,
    "name": "Aplahoué",
    "lat": 6.9396098,
    "lon": 1.6751946,
    "region": 6
  },
  {
    "id": 331,
    "name": "Appi",
    "lat": 9.04995,
    "lon": 1.8234887,
    "region": 7
  },
  {
    "id": 332,
    "name": "Araromi",
    "lat": 6.7361916,
    "lon": 2.7748632,
    "region": 11
  },
  {
    "id": 333,
    "name": "Ararômi",
    "lat": 7.2455516,
    "lon": 2.5749825,
    "region": 11
  },
  {
    "id": 334,
    "name": "Arbonga",
    "lat": 11.380405,
    "lon": 2.433189,
    "region": 1
  },
  {
    "id": 335,
    "name": "Arigbokoto",
    "lat": 7.7841788,
    "lon": 2.1071385,
    "region": 5
  },
  {
    "id": 336,
    "name": "Assaba",
    "lat": 8.3728246,
    "lon": 1.9785991,
    "region": 5
  },
  {
    "id": 337,
    "name": "Assagba",
    "lat": 7.6381431,
    "lon": 1.6633992,
    "region": 5
  },
  {
    "id": 338,
    "name": "Assagbinin-Baka",
    "lat": 9.3302707,
    "lon": 2.6603383,
    "region": 4
  },
  {
    "id": 339,
    "name": "Assan",
    "lat": 7.6387276,
    "lon": 1.7181645,
    "region": 12
  },
  {
    "id": 340,
    "name": "Assankanmè",
    "lat": 7.2456222,
    "lon": 1.8821462,
    "region": 12
  },
  {
    "id": 341,
    "name": "Assanté",
    "lat": 8.1307998,
    "lon": 2.2548536,
    "region": 5
  },
  {
    "id": 342,
    "name": "Assantoun",
    "lat": 7.2986939,
    "lon": 2.0537405,
    "region": 12
  },
  {
    "id": 343,
    "name": "Assèdji-Agonsa",
    "lat": 6.6011209,
    "lon": 1.6640201,
    "region": 9
  },
  {
    "id": 344,
    "name": "Assèdji-Daho",
    "lat": 6.5988658,
    "lon": 1.6619559,
    "region": 9
  },
  {
    "id": 345,
    "name": "Assèkomè",
    "lat": 6.5986545,
    "lon": 1.702381,
    "region": 9
  },
  {
    "id": 346,
    "name": "Assigui-Gbongodo",
    "lat": 6.7428188,
    "lon": 2.5238728,
    "region": 10
  },
  {
    "id": 347,
    "name": "Assihoui",
    "lat": 6.7417587,
    "lon": 2.1675505,
    "region": 3
  },
  {
    "id": 348,
    "name": "Assion",
    "lat": 8.6101222,
    "lon": 1.6779001,
    "region": 7
  },
  {
    "id": 349,
    "name": "Assion 2",
    "lat": 8.6172986,
    "lon": 1.6701828,
    "region": 7
  },
  {
    "id": 350,
    "name": "Assogbahoué",
    "lat": 6.8636578,
    "lon": 1.6797815,
    "region": 6
  },
  {
    "id": 351,
    "name": "Assogbénou-Daho",
    "lat": 6.3545822,
    "lon": 2.0011103,
    "region": 3
  },
  {
    "id": 352,
    "name": "Assoklé",
    "lat": 6.6539183,
    "lon": 2.2846,
    "region": 3
  },
  {
    "id": 353,
    "name": "Assrossa",
    "lat": 6.7301972,
    "lon": 2.4751548,
    "region": 10
  },
  {
    "id": 354,
    "name": "Ataké-Orikéto-Cofé",
    "lat": 7.858724,
    "lon": 2.1297251,
    "region": 5
  },
  {
    "id": 355,
    "name": "Atan-iya",
    "lat": 7.2613076,
    "lon": 2.6645282,
    "region": 11
  },
  {
    "id": 356,
    "name": "Atchabita",
    "lat": 6.8969459,
    "lon": 2.4534777,
    "region": 10
  },
  {
    "id": 357,
    "name": "Atchahoué",
    "lat": 6.7367123,
    "lon": 1.7541663,
    "region": 6
  },
  {
    "id": 358,
    "name": "Atchakpa",
    "lat": 8.0169181,
    "lon": 2.3949143,
    "region": 5
  },
  {
    "id": 359,
    "name": "Atchannou",
    "lat": 6.5449602,
    "lon": 1.7560046,
    "region": 9
  },
  {
    "id": 360,
    "name": "Atchèdohoué",
    "lat": 7.2780636,
    "lon": 1.7761144,
    "region": 6
  },
  {
    "id": 361,
    "name": "Atchia",
    "lat": 7.0842308,
    "lon": 2.080734,
    "region": 12
  },
  {
    "id": 362,
    "name": "Atchihoué",
    "lat": 6.9874559,
    "lon": 1.6853448,
    "region": 6
  },
  {
    "id": 363,
    "name": "Atchintchassa",
    "lat": 6.7587976,
    "lon": 2.4279644,
    "region": 3
  },
  {
    "id": 364,
    "name": "Atchonsa",
    "lat": 6.8560969,
    "lon": 2.4653551,
    "region": 10
  },
  {
    "id": 365,
    "name": "Atchontoé",
    "lat": 6.6006105,
    "lon": 1.6846634,
    "region": 9
  },
  {
    "id": 366,
    "name": "Atchouhoué",
    "lat": 6.8724185,
    "lon": 1.6999697,
    "region": 6
  },
  {
    "id": 367,
    "name": "Atchoukpa",
    "lat": 6.5394731,
    "lon": 2.6324618,
    "region": 10
  },
  {
    "id": 368,
    "name": "Atéguédji",
    "lat": 8.1176971,
    "lon": 2.1214864,
    "region": 5
  },
  {
    "id": 369,
    "name": "Athiémé",
    "lat": 6.5812935,
    "lon": 1.6675163,
    "region": 9
  },
  {
    "id": 370,
    "name": "Atindahangon",
    "lat": 7.2324042,
    "lon": 1.9712195,
    "region": 12
  },
  {
    "id": 371,
    "name": "Atindahoui",
    "lat": 6.7465479,
    "lon": 2.4787047,
    "region": 10
  },
  {
    "id": 372,
    "name": "Atindomè",
    "lat": 6.6983886,
    "lon": 2.2886519,
    "region": 3
  },
  {
    "id": 373,
    "name": "Atira-Kparou",
    "lat": 9.0987644,
    "lon": 2.4901721,
    "region": 4
  },
  {
    "id": 374,
    "name": "Atoè",
    "lat": 6.6992366,
    "lon": 1.9378329,
    "region": 9
  },
  {
    "id": 375,
    "name": "Attakè Èlèkèrè",
    "lat": 7.009997,
    "lon": 2.6074172,
    "region": 11
  },
  {
    "id": 376,
    "name": "Attan Idjé",
    "lat": 6.9398802,
    "lon": 2.6503362,
    "region": 11
  },
  {
    "id": 377,
    "name": "Attan-Éwé",
    "lat": 6.8802323,
    "lon": 2.6406391,
    "region": 11
  },
  {
    "id": 378,
    "name": "Attata",
    "lat": 8.4754073,
    "lon": 2.4573755,
    "region": 5
  },
  {
    "id": 379,
    "name": "Atto-Houé",
    "lat": 6.9995236,
    "lon": 1.6981637,
    "region": 6
  },
  {
    "id": 380,
    "name": "Attogon",
    "lat": 6.7283347,
    "lon": 2.1595636,
    "region": 3
  },
  {
    "id": 381,
    "name": "Attouhonou",
    "lat": 6.6420584,
    "lon": 2.0804189,
    "region": 3
  },
  {
    "id": 382,
    "name": "Avagbodji",
    "lat": 6.5229364,
    "lon": 2.5358817,
    "region": 10
  },
  {
    "id": 383,
    "name": "Avakpa",
    "lat": 6.6667092,
    "lon": 2.0423502,
    "region": 3
  },
  {
    "id": 384,
    "name": "Avali",
    "lat": 7.0755739,
    "lon": 1.9619149,
    "region": 12
  },
  {
    "id": 385,
    "name": "Avankamey",
    "lat": 6.772324,
    "lon": 2.1286665,
    "region": 3
  },
  {
    "id": 386,
    "name": "Avavi",
    "lat": 7.0754401,
    "lon": 2.2132732,
    "region": 12
  },
  {
    "id": 387,
    "name": "Avazounkpa",
    "lat": 6.6799713,
    "lon": 2.1501154,
    "region": 3
  },
  {
    "id": 388,
    "name": "Avédji",
    "lat": 6.5958627,
    "lon": 1.7261959,
    "region": 9
  },
  {
    "id": 389,
    "name": "Avédjin",
    "lat": 6.7893485,
    "lon": 1.6816174,
    "region": 6
  },
  {
    "id": 390,
    "name": "Avegamey",
    "lat": 7.025497,
    "lon": 1.7564553,
    "region": 6
  },
  {
    "id": 391,
    "name": "Avéganmè",
    "lat": 6.7600163,
    "lon": 1.8966613,
    "region": 9
  },
  {
    "id": 392,
    "name": "Avégodo",
    "lat": 6.9565232,
    "lon": 1.6628097,
    "region": 6
  },
  {
    "id": 393,
    "name": "Avégodoui",
    "lat": 6.9382287,
    "lon": 1.6961276,
    "region": 6
  },
  {
    "id": 394,
    "name": "Avétuimey",
    "lat": 6.9418947,
    "lon": 1.7177213,
    "region": 6
  },
  {
    "id": 395,
    "name": "Avlamè",
    "lat": 7.1090479,
    "lon": 2.1338045,
    "region": 12
  },
  {
    "id": 396,
    "name": "Avlankanmè",
    "lat": 6.9363295,
    "lon": 2.420413,
    "region": 10
  },
  {
    "id": 397,
    "name": "Avlékété",
    "lat": 6.3484353,
    "lon": 2.2040058,
    "region": 3
  },
  {
    "id": 398,
    "name": "Avlèssa",
    "lat": 6.5818831,
    "lon": 2.2834428,
    "region": 3
  },
  {
    "id": 399,
    "name": "Avlo",
    "lat": 6.2951995,
    "lon": 1.8945374,
    "region": 9,
    "altName": "Avloh"
  },
  {
    "id": 400,
    "name": "Avlo Houta",
    "lat": 6.2916733,
    "lon": 1.8973381,
    "region": 9,
    "altName": "Avloh Houta"
  },
  {
    "id": 401,
    "name": "Avodjihoué",
    "lat": 6.9026813,
    "lon": 1.6945327,
    "region": 6
  },
  {
    "id": 402,
    "name": "Avogbanna",
    "lat": 7.2196714,
    "lon": 2.0834488,
    "region": 12
  },
  {
    "id": 403,
    "name": "Avokanzoun",
    "lat": 7.2195109,
    "lon": 2.0478653,
    "region": 12
  },
  {
    "id": 404,
    "name": "Avonnouhoué",
    "lat": 6.9071262,
    "lon": 1.673869,
    "region": 6
  },
  {
    "id": 405,
    "name": "Avrankou",
    "lat": 6.5564209,
    "lon": 2.6550687,
    "region": 10
  },
  {
    "id": 406,
    "name": "Awakou",
    "lat": 6.6011431,
    "lon": 1.6791235,
    "region": 9
  },
  {
    "id": 407,
    "name": "Awamè-Agbovèdji",
    "lat": 6.6148604,
    "lon": 1.6666257,
    "region": 9
  },
  {
    "id": 408,
    "name": "Awamè-Kpota",
    "lat": 6.6095194,
    "lon": 1.6716078,
    "region": 9
  },
  {
    "id": 409,
    "name": "Awanou",
    "lat": 6.4293665,
    "lon": 2.6041353,
    "region": 10
  },
  {
    "id": 410,
    "name": "Awassou",
    "lat": 6.9071096,
    "lon": 2.3664841,
    "region": 3
  },
  {
    "id": 411,
    "name": "Awaya",
    "lat": 7.5747559,
    "lon": 2.6639822,
    "region": 11
  },
  {
    "id": 412,
    "name": "Awhouaganougon",
    "lat": 7.2241315,
    "lon": 2.0047875,
    "region": 12
  },
  {
    "id": 413,
    "name": "Awinongon",
    "lat": 7.1338815,
    "lon": 2.008952,
    "region": 12
  },
  {
    "id": 414,
    "name": "Awokpa",
    "lat": 6.7906102,
    "lon": 2.3078161,
    "region": 3
  },
  {
    "id": 415,
    "name": "Awonou",
    "lat": 6.7596422,
    "lon": 2.5510436,
    "region": 10
  },
  {
    "id": 416,
    "name": "Awonsèdja",
    "lat": 6.5985825,
    "lon": 2.30873,
    "region": 3
  },
  {
    "id": 417,
    "name": "Awotrélé",
    "lat": 7.5657218,
    "lon": 1.6976373,
    "region": 12
  },
  {
    "id": 418,
    "name": "Awouyongui",
    "lat": 8.6023847,
    "lon": 1.7435054,
    "region": 7
  },
  {
    "id": 419,
    "name": "Ayahounta-Fifadji",
    "lat": 6.7783969,
    "lon": 2.3743699,
    "region": 3
  },
  {
    "id": 420,
    "name": "Ayakpata",
    "lat": 6.7194485,
    "lon": 2.0339319,
    "region": 3
  },
  {
    "id": 421,
    "name": "Ayamè",
    "lat": 6.7123596,
    "lon": 2.0365047,
    "region": 3
  },
  {
    "id": 422,
    "name": "Ayanho",
    "lat": 7.5920534,
    "lon": 2.6971345,
    "region": 11
  },
  {
    "id": 423,
    "name": "Ayédé",
    "lat": 7.766703,
    "lon": 2.3592082,
    "region": 5
  },
  {
    "id": 424,
    "name": "Ayédèro",
    "lat": 7.2300017,
    "lon": 2.5054561,
    "region": 11
  },
  {
    "id": 425,
    "name": "Ayégourou",
    "lat": 9.0637036,
    "lon": 2.3672116,
    "region": 4
  },
  {
    "id": 426,
    "name": "Ayéladjou",
    "lat": 7.2385342,
    "lon": 2.5297444,
    "region": 11
  },
  {
    "id": 427,
    "name": "Ayélawadjè",
    "lat": 6.945495,
    "lon": 2.5974737,
    "region": 11
  },
  {
    "id": 428,
    "name": "Ayésso",
    "lat": 6.8471529,
    "lon": 1.8390991,
    "region": 6
  },
  {
    "id": 429,
    "name": "Ayetèdjou",
    "lat": 7.2477076,
    "lon": 2.5564603,
    "region": 11
  },
  {
    "id": 430,
    "name": "Ayètèdjou",
    "lat": 6.6591302,
    "lon": 2.7172494,
    "region": 11
  },
  {
    "id": 431,
    "name": "Ayigbo-Koto",
    "lat": 8.5960844,
    "lon": 1.7400369,
    "region": 7
  },
  {
    "id": 432,
    "name": "Ayiguinnou",
    "lat": 6.2608787,
    "lon": 1.7464024,
    "region": 9
  },
  {
    "id": 433,
    "name": "Ayimèvo",
    "lat": 6.7654949,
    "lon": 2.1739355,
    "region": 3
  },
  {
    "id": 434,
    "name": "Ayita",
    "lat": 6.7027558,
    "lon": 2.6313329,
    "region": 11
  },
  {
    "id": 435,
    "name": "Ayitchokoè",
    "lat": 7.6476835,
    "lon": 2.2846269,
    "region": 5
  },
  {
    "id": 436,
    "name": "Ayiwomè",
    "lat": 7.2217949,
    "lon": 1.946156,
    "region": 12
  },
  {
    "id": 437,
    "name": "Ayizannonhoué",
    "lat": 6.6881691,
    "lon": 2.5037691,
    "region": 10
  },
  {
    "id": 438,
    "name": "Ayogbé",
    "lat": 7.2992234,
    "lon": 2.0044367,
    "region": 12
  },
  {
    "id": 439,
    "name": "Ayomi",
    "lat": 6.7782026,
    "lon": 1.7217071,
    "region": 6
  },
  {
    "id": 440,
    "name": "Ayou",
    "lat": 6.7251948,
    "lon": 2.1180394,
    "region": 3
  },
  {
    "id": 441,
    "name": "Ayoucomè",
    "lat": 6.6559091,
    "lon": 1.6568711,
    "region": 9
  },
  {
    "id": 442,
    "name": "Azakpo",
    "lat": 7.3231467,
    "lon": 2.4640034,
    "region": 11
  },
  {
    "id": 443,
    "name": "Azannou",
    "lat": 6.39986,
    "lon": 1.8844652,
    "region": 9
  },
  {
    "id": 444,
    "name": "Azingboto",
    "lat": 6.8226769,
    "lon": 2.3015701,
    "region": 3
  },
  {
    "id": 445,
    "name": "Azizadogbamé",
    "lat": 6.7937575,
    "lon": 2.4835386,
    "region": 10
  },
  {
    "id": 446,
    "name": "Azizakouè",
    "lat": 6.3217513,
    "lon": 2.0321395,
    "region": 3
  },
  {
    "id": 447,
    "name": "Azizakponou",
    "lat": 6.7976157,
    "lon": 2.4812597,
    "region": 10
  },
  {
    "id": 448,
    "name": "Azohouè-Cada",
    "lat": 6.5579512,
    "lon": 2.0994123,
    "region": 3,
    "altName": "Adzohouè-Kada"
  },
  {
    "id": 449,
    "name": "Azohouè-Gbédjicomè",
    "lat": 6.6013101,
    "lon": 2.0247711,
    "region": 3
  },
  {
    "id": 450,
    "name": "Azohouè-Hongbo",
    "lat": 6.5955645,
    "lon": 2.031913,
    "region": 3
  },
  {
    "id": 451,
    "name": "Azondogahoué",
    "lat": 6.9885018,
    "lon": 1.601998,
    "region": 6
  },
  {
    "id": 452,
    "name": "Azonhoubohoué",
    "lat": 6.9635453,
    "lon": 1.8608101,
    "region": 6
  },
  {
    "id": 453,
    "name": "Azonzounmè",
    "lat": 6.8457468,
    "lon": 2.5223701,
    "region": 10
  },
  {
    "id": 454,
    "name": "Azovè",
    "lat": 6.9471178,
    "lon": 1.7038129,
    "region": 6
  },
  {
    "id": 455,
    "name": "Azowlissè",
    "lat": 6.6662285,
    "lon": 2.4926623,
    "region": 10
  },
  {
    "id": 456,
    "name": "Baako",
    "lat": 8.2383976,
    "lon": 2.6967305,
    "region": 5
  },
  {
    "id": 457,
    "name": "Babalaohoué",
    "lat": 7.606701,
    "lon": 2.3989177,
    "region": 5
  },
  {
    "id": 458,
    "name": "Babarou",
    "lat": 9.1230473,
    "lon": 2.4255765,
    "region": 4
  },
  {
    "id": 459,
    "name": "Babazaouré",
    "lat": 9.9064682,
    "lon": 1.5583565,
    "region": 7
  },
  {
    "id": 460,
    "name": "Badazouin",
    "lat": 6.7375399,
    "lon": 1.9357095,
    "region": 9
  },
  {
    "id": 461,
    "name": "Badékparou",
    "lat": 9.2193432,
    "lon": 2.5607334,
    "region": 4
  },
  {
    "id": 462,
    "name": "Badjamè",
    "lat": 7.1155618,
    "lon": 1.6577668,
    "region": 6
  },
  {
    "id": 463,
    "name": "Badjoudè",
    "lat": 9.7168104,
    "lon": 1.4142794,
    "region": 7
  },
  {
    "id": 464,
    "name": "Badou",
    "lat": 10.8956816,
    "lon": 2.734955,
    "region": 1
  },
  {
    "id": 465,
    "name": "Badougoukparou",
    "lat": 10.1181726,
    "lon": 2.6503316,
    "region": 4
  },
  {
    "id": 466,
    "name": "Baffan",
    "lat": 7.1666138,
    "lon": 1.8963214,
    "region": 12
  },
  {
    "id": 467,
    "name": "Bafouanou",
    "lat": 11.4297623,
    "lon": 2.5129723,
    "region": 1
  },
  {
    "id": 468,
    "name": "Bafounou",
    "lat": 11.4257872,
    "lon": 2.5307286,
    "region": 1
  },
  {
    "id": 469,
    "name": "Bagaou Tounga",
    "lat": 11.8337714,
    "lon": 3.3326125,
    "region": 1
  },
  {
    "id": 470,
    "name": "Bagapodi",
    "lat": 10.5242958,
    "lon": 1.0525263,
    "region": 2
  },
  {
    "id": 471,
    "name": "Bagaria",
    "lat": 10.3103748,
    "lon": 3.2567872,
    "region": 4
  },
  {
    "id": 472,
    "name": "Bagon",
    "lat": 7.1647515,
    "lon": 2.3467966,
    "region": 12
  },
  {
    "id": 473,
    "name": "Bagou",
    "lat": 10.8132664,
    "lon": 2.7233307,
    "region": 1
  },
  {
    "id": 474,
    "name": "Bagouri Tounga",
    "lat": 11.8412899,
    "lon": 3.4482908,
    "region": 1
  },
  {
    "id": 475,
    "name": "Bahoué",
    "lat": 6.8409417,
    "lon": 1.6501355,
    "region": 6
  },
  {
    "id": 476,
    "name": "Bakata",
    "lat": 11.1547085,
    "lon": 2.9221165,
    "region": 1
  },
  {
    "id": 477,
    "name": "Bakèma",
    "lat": 7.757552,
    "lon": 2.1852585,
    "region": 5
  },
  {
    "id": 478,
    "name": "Bako Maka",
    "lat": 12.3842487,
    "lon": 2.829237,
    "region": 1
  },
  {
    "id": 479,
    "name": "Bakou",
    "lat": 9.43098,
    "lon": 2.0646045,
    "region": 7
  },
  {
    "id": 480,
    "name": "Bakou 2",
    "lat": 9.4093119,
    "lon": 2.087465,
    "region": 7
  },
  {
    "id": 481,
    "name": "Bakou Bè",
    "lat": 11.1638846,
    "lon": 3.4137598,
    "region": 1
  },
  {
    "id": 482,
    "name": "Bakpérou",
    "lat": 9.2758158,
    "lon": 2.5821914,
    "region": 4
  },
  {
    "id": 483,
    "name": "Balimboli",
    "lat": 9.073071,
    "lon": 1.640289,
    "region": 7
  },
  {
    "id": 484,
    "name": "Balma",
    "lat": 9.5432802,
    "lon": 1.5464228,
    "region": 7
  },
  {
    "id": 485,
    "name": "Balohoué",
    "lat": 7.0892727,
    "lon": 1.6831387,
    "region": 6
  },
  {
    "id": 486,
    "name": "Bambaga",
    "lat": 11.565366,
    "lon": 2.4710119,
    "region": 1
  },
  {
    "id": 487,
    "name": "Bamisso",
    "lat": 9.9023415,
    "lon": 1.7286053,
    "region": 7
  },
  {
    "id": 488,
    "name": "Banagbasson",
    "lat": 10.6185157,
    "lon": 3.5818462,
    "region": 4
  },
  {
    "id": 489,
    "name": "Banamè",
    "lat": 7.3247124,
    "lon": 2.3325353,
    "region": 12
  },
  {
    "id": 490,
    "name": "Bandéssar",
    "lat": 9.6981049,
    "lon": 1.5587672,
    "region": 7
  },
  {
    "id": 491,
    "name": "Bandétchohi",
    "lat": 9.7481104,
    "lon": 1.5653231,
    "region": 7
  },
  {
    "id": 492,
    "name": "Banézi",
    "lat": 10.5402462,
    "lon": 3.7341688,
    "region": 4
  },
  {
    "id": 493,
    "name": "Banga",
    "lat": 10.8307275,
    "lon": 3.4936081,
    "region": 1
  },
  {
    "id": 494,
    "name": "Bangou",
    "lat": 10.5612556,
    "lon": 0.9601335,
    "region": 2
  },
  {
    "id": 495,
    "name": "Banhoun-Kpo",
    "lat": 9.6752599,
    "lon": 2.6783682,
    "region": 4
  },
  {
    "id": 496,
    "name": "Bania Fari",
    "lat": 11.8421693,
    "lon": 3.4408235,
    "region": 1
  },
  {
    "id": 497,
    "name": "Banigbé",
    "lat": 7.7704776,
    "lon": 2.3494865,
    "region": 5
  },
  {
    "id": 498,
    "name": "Banigouré",
    "lat": 10.8659688,
    "lon": 2.7632201,
    "region": 1
  },
  {
    "id": 499,
    "name": "Banigri",
    "lat": 9.4121435,
    "lon": 1.7566818,
    "region": 7
  },
  {
    "id": 500,
    "name": "Banikani",
    "lat": 12.1274057,
    "lon": 3.1183409,
    "region": 1
  },
  {
    "id": 501,
    "name": "Banikoara",
    "lat": 11.3004241,
    "lon": 2.4370752,
    "region": 1
  },
  {
    "id": 502,
    "name": "Baniloua",
    "lat": 11.8154285,
    "lon": 3.2971537,
    "region": 1
  },
  {
    "id": 503,
    "name": "Banon",
    "lat": 8.4909393,
    "lon": 1.8969374,
    "region": 5
  },
  {
    "id": 504,
    "name": "Bantansouè",
    "lat": 10.919055,
    "lon": 2.8591312,
    "region": 1
  },
  {
    "id": 505,
    "name": "Banté",
    "lat": 8.4114512,
    "lon": 1.886978,
    "region": 5
  },
  {
    "id": 506,
    "name": "Baodjo",
    "lat": 6.7312051,
    "lon": 2.7739191,
    "region": 11
  },
  {
    "id": 507,
    "name": "Baoura",
    "lat": 10.3312413,
    "lon": 2.7169807,
    "region": 4
  },
  {
    "id": 508,
    "name": "Barei",
    "lat": 9.6806029,
    "lon": 1.5707986,
    "region": 7
  },
  {
    "id": 509,
    "name": "Barèi-Vaaha",
    "lat": 9.6834387,
    "lon": 1.5716711,
    "region": 7
  },
  {
    "id": 510,
    "name": "Barerou",
    "lat": 9.3241848,
    "lon": 2.5069585,
    "region": 4
  },
  {
    "id": 511,
    "name": "Bari",
    "lat": 9.9568196,
    "lon": 1.9619147,
    "region": 7
  },
  {
    "id": 512,
    "name": "Bariénou",
    "lat": 9.7168374,
    "lon": 1.7724794,
    "region": 7
  },
  {
    "id": 513,
    "name": "Barikini",
    "lat": 9.0194084,
    "lon": 1.6613787,
    "region": 7
  },
  {
    "id": 514,
    "name": "Barrage",
    "lat": 9.3468176,
    "lon": 2.7170294,
    "region": 4
  },
  {
    "id": 515,
    "name": "Bas-Igbo",
    "lat": 7.3797466,
    "lon": 2.6630202,
    "region": 11
  },
  {
    "id": 516,
    "name": "Bassila",
    "lat": 9.0075302,
    "lon": 1.6642215,
    "region": 7
  },
  {
    "id": 517,
    "name": "Basso",
    "lat": 10.4983017,
    "lon": 3.6925834,
    "region": 4
  },
  {
    "id": 518,
    "name": "Bathoto",
    "lat": 6.4415416,
    "lon": 1.7632413,
    "region": 9
  },
  {
    "id": 519,
    "name": "Batia",
    "lat": 10.9000565,
    "lon": 1.4890824,
    "region": 2
  },
  {
    "id": 520,
    "name": "Batin",
    "lat": 10.4485937,
    "lon": 2.9726806,
    "region": 4
  },
  {
    "id": 521,
    "name": "Batirou",
    "lat": 9.1001326,
    "lon": 2.5817152,
    "region": 4
  },
  {
    "id": 522,
    "name": "Batran",
    "lat": 11.4017301,
    "lon": 2.3697388,
    "region": 1
  },
  {
    "id": 523,
    "name": "Bavou",
    "lat": 7.2533009,
    "lon": 1.6785384,
    "region": 6
  },
  {
    "id": 524,
    "name": "Bawekanmey",
    "lat": 6.7261045,
    "lon": 2.2004446,
    "region": 3
  },
  {
    "id": 525,
    "name": "Bayakou",
    "lat": 9.366571,
    "lon": 1.750652,
    "region": 7
  },
  {
    "id": 526,
    "name": "Bazounmè",
    "lat": 6.6812117,
    "lon": 2.4970011,
    "region": 10
  },
  {
    "id": 527,
    "name": "Beket",
    "lat": 10.2506876,
    "lon": 1.995509,
    "region": 2
  },
  {
    "id": 528,
    "name": "Bella-Tounga",
    "lat": 12.0494775,
    "lon": 3.2109368,
    "region": 1
  },
  {
    "id": 529,
    "name": "Belléfoungou",
    "lat": 9.8146638,
    "lon": 1.7220086,
    "region": 7
  },
  {
    "id": 530,
    "name": "Bembè",
    "lat": 6.5370542,
    "lon": 2.5372473,
    "region": 10
  },
  {
    "id": 531,
    "name": "Bembè-Akpa",
    "lat": 6.5354766,
    "lon": 2.5353018,
    "region": 10
  },
  {
    "id": 532,
    "name": "Bembéréké",
    "lat": 10.2242175,
    "lon": 2.6675063,
    "region": 4
  },
  {
    "id": 533,
    "name": "Bembéréké Peulh",
    "lat": 10.1146646,
    "lon": 2.739476,
    "region": 4
  },
  {
    "id": 534,
    "name": "Bensékou",
    "lat": 10.9859397,
    "lon": 3.151395,
    "region": 1
  },
  {
    "id": 535,
    "name": "Berecingou",
    "lat": 10.2296459,
    "lon": 1.398203,
    "region": 2
  },
  {
    "id": 536,
    "name": "Bèrèkè-Gando",
    "lat": 10.3738475,
    "lon": 2.6779601,
    "region": 4
  },
  {
    "id": 537,
    "name": "Bérékossou",
    "lat": 10.6980811,
    "lon": 2.0804416,
    "region": 2
  },
  {
    "id": 538,
    "name": "Berou",
    "lat": 10.2539532,
    "lon": 2.7459427,
    "region": 4
  },
  {
    "id": 539,
    "name": "Béroubouay",
    "lat": 10.5349228,
    "lon": 2.7257037,
    "region": 4
  },
  {
    "id": 540,
    "name": "Beroubouay Peulh",
    "lat": 10.52697,
    "lon": 2.6909013,
    "region": 4
  },
  {
    "id": 541,
    "name": "Béssassi",
    "lat": 10.3861196,
    "lon": 3.4710735,
    "region": 4
  },
  {
    "id": 542,
    "name": "Béssassi-Béa",
    "lat": 10.3845458,
    "lon": 3.4634829,
    "region": 4
  },
  {
    "id": 543,
    "name": "Bétérou",
    "lat": 9.2021611,
    "lon": 2.2736894,
    "region": 4
  },
  {
    "id": 544,
    "name": "Béthel",
    "lat": 8.0100856,
    "lon": 2.3629366,
    "region": 5
  },
  {
    "id": 545,
    "name": "Bétoumey",
    "lat": 6.9387506,
    "lon": 1.7222613,
    "region": 6
  },
  {
    "id": 546,
    "name": "Betta",
    "lat": 7.3333266,
    "lon": 2.0069148,
    "region": 12
  },
  {
    "id": 547,
    "name": "Béyarou",
    "lat": 9.299488,
    "lon": 2.5952732,
    "region": 4
  },
  {
    "id": 548,
    "name": "Biboubawangou",
    "lat": 11.2912503,
    "lon": 2.2523784,
    "region": 1
  },
  {
    "id": 549,
    "name": "Biguina-Akpassa",
    "lat": 8.7768349,
    "lon": 1.6477986,
    "region": 7
  },
  {
    "id": 550,
    "name": "Biguina-Holoudè",
    "lat": 8.7657264,
    "lon": 1.6487989,
    "region": 7
  },
  {
    "id": 551,
    "name": "Biguina-Tosso",
    "lat": 8.749825,
    "lon": 1.6467284,
    "region": 7
  },
  {
    "id": 552,
    "name": "Binagnon",
    "lat": 7.5927936,
    "lon": 2.5404179,
    "region": 11
  },
  {
    "id": 553,
    "name": "Binassi",
    "lat": 9.4841496,
    "lon": 2.7766344,
    "region": 4
  },
  {
    "id": 554,
    "name": "Binga",
    "lat": 10.8076537,
    "lon": 2.8961367,
    "region": 1
  },
  {
    "id": 555,
    "name": "Birni",
    "lat": 9.9912459,
    "lon": 1.5274595,
    "region": 2
  },
  {
    "id": 556,
    "name": "Birni-Lafia",
    "lat": 11.9785829,
    "lon": 3.2205809,
    "region": 1
  },
  {
    "id": 557,
    "name": "Biro",
    "lat": 9.9035389,
    "lon": 2.9469131,
    "region": 4
  },
  {
    "id": 558,
    "name": "Blèhouan",
    "lat": 6.565599,
    "lon": 2.596784,
    "region": 10
  },
  {
    "id": 559,
    "name": "Blotchihoué",
    "lat": 6.8356934,
    "lon": 1.7248818,
    "region": 6
  },
  {
    "id": 560,
    "name": "Boa",
    "lat": 10.3702084,
    "lon": 3.2198412,
    "region": 4
  },
  {
    "id": 561,
    "name": "Boa-Gando",
    "lat": 10.3598189,
    "lon": 3.2494801,
    "region": 4
  },
  {
    "id": 562,
    "name": "Bôbè",
    "lat": 8.4280506,
    "lon": 1.9968877,
    "region": 5
  },
  {
    "id": 563,
    "name": "Bobéna",
    "lat": 10.7940051,
    "lon": 3.5360321,
    "region": 1
  },
  {
    "id": 564,
    "name": "Bocohoué",
    "lat": 6.5940533,
    "lon": 1.7319718,
    "region": 9
  },
  {
    "id": 565,
    "name": "Bodi",
    "lat": 9.3775838,
    "lon": 1.566552,
    "region": 7
  },
  {
    "id": 566,
    "name": "Bodjécali",
    "lat": 11.8086997,
    "lon": 3.3814495,
    "region": 1,
    "altName": "Bodjékali"
  },
  {
    "id": 567,
    "name": "Bodji",
    "lat": 6.7463283,
    "lon": 2.3714976,
    "region": 3
  },
  {
    "id": 568,
    "name": "Boé",
    "lat": 9.1968942,
    "lon": 2.8705533,
    "region": 4,
    "altName": "Bouay"
  },
  {
    "id": 569,
    "name": "Bogandji",
    "lat": 7.0125881,
    "lon": 1.741704,
    "region": 6
  },
  {
    "id": 570,
    "name": "Bogbé",
    "lat": 6.7124291,
    "lon": 2.3123042,
    "region": 3
  },
  {
    "id": 571,
    "name": "Bognongon",
    "lat": 7.0599767,
    "lon": 2.160624,
    "region": 12
  },
  {
    "id": 572,
    "name": "Bogo-Bogo",
    "lat": 12.1035183,
    "lon": 3.1059362,
    "region": 1
  },
  {
    "id": 573,
    "name": "Bogogpira",
    "lat": 11.3393571,
    "lon": 2.4040908,
    "region": 1
  },
  {
    "id": 574,
    "name": "Bohicon",
    "lat": 7.1816331,
    "lon": 2.0695683,
    "region": 12
  },
  {
    "id": 575,
    "name": "Bohoué",
    "lat": 7.2657466,
    "lon": 1.9925079,
    "region": 12
  },
  {
    "id": 576,
    "name": "Boiffo",
    "lat": 11.6925464,
    "lon": 3.1745285,
    "region": 1
  },
  {
    "id": 577,
    "name": "Boko",
    "lat": 9.4901402,
    "lon": 2.6263978,
    "region": 4
  },
  {
    "id": 578,
    "name": "Bokousso",
    "lat": 6.5730809,
    "lon": 2.6161044,
    "region": 10
  },
  {
    "id": 579,
    "name": "Bolimè",
    "lat": 6.6793001,
    "lon": 1.8386114,
    "region": 9
  },
  {
    "id": 580,
    "name": "Bolli",
    "lat": 6.7162654,
    "lon": 2.0586571,
    "region": 3
  },
  {
    "id": 581,
    "name": "Bom-Bom",
    "lat": 9.8414862,
    "lon": 1.6600565,
    "region": 7
  },
  {
    "id": 582,
    "name": "Bongnami",
    "lat": 12.2573176,
    "lon": 2.8555642,
    "region": 1
  },
  {
    "id": 583,
    "name": "Bonhanrou",
    "lat": 11.3663223,
    "lon": 2.4722028,
    "region": 1
  },
  {
    "id": 584,
    "name": "Bonni",
    "lat": 11.1378291,
    "lon": 2.1731081,
    "region": 2
  },
  {
    "id": 585,
    "name": "Bonou",
    "lat": 6.9052139,
    "lon": 2.4538661,
    "region": 10
  },
  {
    "id": 586,
    "name": "Bonouglanouhoué",
    "lat": 6.680824,
    "lon": 2.5039612,
    "region": 10
  },
  {
    "id": 587,
    "name": "Bonwoubérou",
    "lat": 9.2429136,
    "lon": 2.9549093,
    "region": 4
  },
  {
    "id": 588,
    "name": "Bopa",
    "lat": 6.5893347,
    "lon": 1.9668937,
    "region": 9
  },
  {
    "id": 589,
    "name": "Bori",
    "lat": 9.7475763,
    "lon": 2.4386704,
    "region": 4
  },
  {
    "id": 590,
    "name": "Boro",
    "lat": 10.3554064,
    "lon": 2.9422789,
    "region": 4
  },
  {
    "id": 591,
    "name": "Borodarou",
    "lat": 10.9806535,
    "lon": 2.8739272,
    "region": 1
  },
  {
    "id": 592,
    "name": "Borokou",
    "lat": 9.2331494,
    "lon": 2.741586,
    "region": 4
  },
  {
    "id": 593,
    "name": "Boronin",
    "lat": 8.892797,
    "lon": 2.5853843,
    "region": 4
  },
  {
    "id": 594,
    "name": "Borori",
    "lat": 8.9285069,
    "lon": 2.661005,
    "region": 4
  },
  {
    "id": 595,
    "name": "Bortoko",
    "lat": 9.7994011,
    "lon": 1.9014245,
    "region": 7
  },
  {
    "id": 596,
    "name": "Bossa",
    "lat": 7.0005871,
    "lon": 2.4698971,
    "region": 12
  },
  {
    "id": 597,
    "name": "Bossakomè",
    "lat": 6.6989894,
    "lon": 2.4133958,
    "region": 3
  },
  {
    "id": 598,
    "name": "Bosso-Camps-Peulhs",
    "lat": 9.3926029,
    "lon": 2.4100588,
    "region": 4
  },
  {
    "id": 599,
    "name": "Bossouhoué",
    "lat": 6.9465062,
    "lon": 1.6742935,
    "region": 6
  },
  {
    "id": 600,
    "name": "Bota",
    "lat": 6.9469978,
    "lon": 1.7311569,
    "region": 6
  },
  {
    "id": 601,
    "name": "Botagbé",
    "lat": 6.8259312,
    "lon": 1.8664693,
    "region": 6
  },
  {
    "id": 602,
    "name": "Boton-Akoudohoué",
    "lat": 6.7827641,
    "lon": 2.4852697,
    "region": 10
  },
  {
    "id": 603,
    "name": "Botti-Houégbo",
    "lat": 8.383754,
    "lon": 2.5567943,
    "region": 5
  },
  {
    "id": 604,
    "name": "Bouaïna",
    "lat": 10.8609713,
    "lon": 3.735019,
    "region": 1
  },
  {
    "id": 605,
    "name": "Bouanri",
    "lat": 10.1971052,
    "lon": 2.8786029,
    "region": 4
  },
  {
    "id": 606,
    "name": "Boubou",
    "lat": 8.0101772,
    "lon": 2.2318396,
    "region": 5
  },
  {
    "id": 607,
    "name": "Bouérou",
    "lat": 9.7550695,
    "lon": 2.5469413,
    "region": 4
  },
  {
    "id": 608,
    "name": "Bougnankou",
    "lat": 9.5164529,
    "lon": 2.8378115,
    "region": 4
  },
  {
    "id": 609,
    "name": "Bougou",
    "lat": 9.4376196,
    "lon": 1.620465,
    "region": 7
  },
  {
    "id": 610,
    "name": "Bouka",
    "lat": 10.2148628,
    "lon": 3.1367518,
    "region": 4
  },
  {
    "id": 611,
    "name": "Bouka-Gando",
    "lat": 10.1887474,
    "lon": 3.1601989,
    "region": 4
  },
  {
    "id": 612,
    "name": "Bouka-Peulh",
    "lat": 10.2227574,
    "lon": 3.1486146,
    "region": 4
  },
  {
    "id": 613,
    "name": "Boukombé",
    "lat": 10.1832167,
    "lon": 1.1000529,
    "region": 2,
    "altName": "Boukoumbé"
  },
  {
    "id": 614,
    "name": "Boukoubourou",
    "lat": 10.9715603,
    "lon": 2.2148968,
    "region": 2
  },
  {
    "id": 615,
    "name": "Boukouro",
    "lat": 10.2894171,
    "lon": 2.4000271,
    "region": 4
  },
  {
    "id": 616,
    "name": "Boukousséra",
    "lat": 9.1035475,
    "lon": 2.5294322,
    "region": 4
  },
  {
    "id": 617,
    "name": "Bouloum",
    "lat": 9.6664343,
    "lon": 1.6876847,
    "region": 7
  },
  {
    "id": 618,
    "name": "Boumoussou",
    "lat": 11.014514,
    "lon": 3.4179005,
    "region": 1
  },
  {
    "id": 619,
    "name": "Boungourou",
    "lat": 10.0461773,
    "lon": 2.0541714,
    "region": 2
  },
  {
    "id": 620,
    "name": "Bounin",
    "lat": 9.6356997,
    "lon": 2.7593708,
    "region": 4
  },
  {
    "id": 621,
    "name": "Bouratébé",
    "lat": 10.4856385,
    "lon": 2.5866495,
    "region": 4
  },
  {
    "id": 622,
    "name": "Bouri",
    "lat": 10.3683865,
    "lon": 2.7613999,
    "region": 4
  },
  {
    "id": 623,
    "name": "Bourin",
    "lat": 11.2283475,
    "lon": 2.5607017,
    "region": 1
  },
  {
    "id": 624,
    "name": "Bouro",
    "lat": 10.3695764,
    "lon": 2.460224,
    "region": 4
  },
  {
    "id": 625,
    "name": "Bourondi",
    "lat": 9.7330818,
    "lon": 1.6312122,
    "region": 7
  },
  {
    "id": 626,
    "name": "Bouroubourou",
    "lat": 11.4268756,
    "lon": 2.3891187,
    "region": 1
  },
  {
    "id": 627,
    "name": "Boussoura",
    "lat": 10.3645448,
    "lon": 2.9025294,
    "region": 4
  },
  {
    "id": 628,
    "name": "Boutou",
    "lat": 9.4144715,
    "lon": 1.5278874,
    "region": 7
  },
  {
    "id": 629,
    "name": "Bouyangourou",
    "lat": 10.779001,
    "lon": 2.7150872,
    "region": 1
  },
  {
    "id": 630,
    "name": "Bozinkpé",
    "lat": 6.9742056,
    "lon": 1.6781016,
    "region": 6
  },
  {
    "id": 631,
    "name": "Brignamaro",
    "lat": 10.7410878,
    "lon": 2.0721339,
    "region": 2,
    "altName": "Briniamaro"
  },
  {
    "id": 632,
    "name": "Camaté",
    "lat": 7.8481126,
    "lon": 2.2153326,
    "region": 5
  },
  {
    "id": 633,
    "name": "Camp Zato",
    "lat": 9.2984231,
    "lon": 3.0244315,
    "region": 4
  },
  {
    "id": 634,
    "name": "Cana",
    "lat": 7.1194346,
    "lon": 2.0942715,
    "region": 12
  },
  {
    "id": 635,
    "name": "Cana 2",
    "lat": 7.1255097,
    "lon": 2.0790191,
    "region": 12
  },
  {
    "id": 636,
    "name": "Chabi Kouma",
    "lat": 10.0043444,
    "lon": 1.474298,
    "region": 2
  },
  {
    "id": 637,
    "name": "Challa-Ogoï",
    "lat": 8.4032305,
    "lon": 2.5904238,
    "region": 5
  },
  {
    "id": 638,
    "name": "Chori",
    "lat": 7.4034392,
    "lon": 2.6959111,
    "region": 11
  },
  {
    "id": 639,
    "name": "Cité A",
    "lat": 6.7682973,
    "lon": 2.1712148,
    "region": 3
  },
  {
    "id": 640,
    "name": "Cité B",
    "lat": 6.7657524,
    "lon": 2.177499,
    "region": 3
  },
  {
    "id": 641,
    "name": "Cité Ouvrière",
    "lat": 9.3085087,
    "lon": 2.7071804,
    "region": 4
  },
  {
    "id": 642,
    "name": "Cité-les-Palmiers",
    "lat": 6.478905,
    "lon": 2.3414456,
    "region": 3
  },
  {
    "id": 643,
    "name": "Cloubou",
    "lat": 8.2401102,
    "lon": 1.9710089,
    "region": 5
  },
  {
    "id": 644,
    "name": "Cobli",
    "lat": 10.4892543,
    "lon": 1.0081713,
    "region": 2,
    "altName": "Cobly"
  },
  {
    "id": 645,
    "name": "Cococodji",
    "lat": 6.3874765,
    "lon": 2.2720568,
    "region": 3
  },
  {
    "id": 646,
    "name": "Cocoucodji",
    "lat": 6.3924107,
    "lon": 1.9421374,
    "region": 9
  },
  {
    "id": 647,
    "name": "Codjohoué",
    "lat": 6.7401879,
    "lon": 1.762977,
    "region": 6
  },
  {
    "id": 648,
    "name": "Coffè Odan",
    "lat": 7.8705166,
    "lon": 2.1384606,
    "region": 5
  },
  {
    "id": 649,
    "name": "Comè",
    "lat": 6.4041973,
    "lon": 1.8840863,
    "region": 9
  },
  {
    "id": 650,
    "name": "Condji-Agnamè",
    "lat": 6.5823118,
    "lon": 1.7419677,
    "region": 9
  },
  {
    "id": 651,
    "name": "Conho",
    "lat": 6.3336878,
    "lon": 1.8169364,
    "region": 9
  },
  {
    "id": 652,
    "name": "Copargo",
    "lat": 9.8395429,
    "lon": 1.5467475,
    "region": 7
  },
  {
    "id": 653,
    "name": "Coré",
    "lat": 10.4422313,
    "lon": 0.8165318,
    "region": 2
  },
  {
    "id": 654,
    "name": "Cotiakou",
    "lat": 10.5920163,
    "lon": 1.3038172,
    "region": 2
  },
  {
    "id": 655,
    "name": "Cotocoli",
    "lat": 6.3258982,
    "lon": 1.7945641,
    "region": 9
  },
  {
    "id": 656,
    "name": "Cotonou",
    "lat": 6.3676953,
    "lon": 2.4252507,
    "region": 8
  },
  {
    "id": 657,
    "name": "Couffokpa",
    "lat": 7.275858,
    "lon": 1.7686678,
    "region": 6
  },
  {
    "id": 658,
    "name": "Coussi",
    "lat": 6.8519525,
    "lon": 2.1396732,
    "region": 3
  },
  {
    "id": 659,
    "name": "Covè",
    "lat": 7.2195352,
    "lon": 2.3399622,
    "region": 12,
    "altName": "Cové"
  },
  {
    "id": 660,
    "name": "Daagbé",
    "lat": 6.5770047,
    "lon": 2.6977229,
    "region": 11
  },
  {
    "id": 661,
    "name": "Daagbé-Nagot",
    "lat": 6.5726988,
    "lon": 2.6961994,
    "region": 11
  },
  {
    "id": 662,
    "name": "Dabogou",
    "lat": 9.4193885,
    "lon": 1.9171831,
    "region": 7
  },
  {
    "id": 663,
    "name": "Dabou",
    "lat": 10.1730807,
    "lon": 2.7478504,
    "region": 4
  },
  {
    "id": 664,
    "name": "Dado",
    "lat": 6.5819578,
    "lon": 1.9646573,
    "region": 9
  },
  {
    "id": 665,
    "name": "Dadohoué",
    "lat": 6.757477,
    "lon": 1.7581558,
    "region": 6
  },
  {
    "id": 666,
    "name": "Dagbarou",
    "lat": 11.3383355,
    "lon": 2.6275073,
    "region": 1
  },
  {
    "id": 667,
    "name": "Dagbla",
    "lat": 7.0959812,
    "lon": 2.5727053,
    "region": 11
  },
  {
    "id": 668,
    "name": "Dagléta",
    "lat": 6.6496571,
    "lon": 2.1754031,
    "region": 3
  },
  {
    "id": 669,
    "name": "Dagoubaga",
    "lat": 11.2501039,
    "lon": 2.4495931,
    "region": 1
  },
  {
    "id": 670,
    "name": "Dagourou",
    "lat": 10.8883706,
    "lon": 3.0195022,
    "region": 1
  },
  {
    "id": 671,
    "name": "Dahè",
    "lat": 6.5197302,
    "lon": 1.9494615,
    "region": 9
  },
  {
    "id": 672,
    "name": "Dahoué",
    "lat": 6.7975091,
    "lon": 1.7790062,
    "region": 6
  },
  {
    "id": 673,
    "name": "Dahsramey",
    "lat": 6.7396259,
    "lon": 2.1925289,
    "region": 3
  },
  {
    "id": 674,
    "name": "Dakpa Agblado",
    "lat": 7.2061632,
    "lon": 2.0216667,
    "region": 12
  },
  {
    "id": 675,
    "name": "Dakpéra",
    "lat": 9.8469187,
    "lon": 1.483104,
    "region": 7
  },
  {
    "id": 676,
    "name": "Damè-Centre",
    "lat": 6.8387915,
    "lon": 2.2282988,
    "region": 3
  },
  {
    "id": 677,
    "name": "Damè-Wogon",
    "lat": 6.945791,
    "lon": 2.4187842,
    "region": 10
  },
  {
    "id": 678,
    "name": "Dan",
    "lat": 7.3250546,
    "lon": 2.0813978,
    "region": 12
  },
  {
    "id": 679,
    "name": "Dan-Zoukoutoudja",
    "lat": 6.9976735,
    "lon": 2.1004271,
    "region": 12
  },
  {
    "id": 680,
    "name": "Danganzi",
    "lat": 10.318655,
    "lon": 3.4604771,
    "region": 4
  },
  {
    "id": 681,
    "name": "Dangazori",
    "lat": 12.2792393,
    "lon": 2.9816481,
    "region": 1
  },
  {
    "id": 682,
    "name": "Dangbéhonou",
    "lat": 7.1459743,
    "lon": 2.3595946,
    "region": 12
  },
  {
    "id": 683,
    "name": "Dangbinikou",
    "lat": 10.2011382,
    "lon": 2.681169,
    "region": 4
  },
  {
    "id": 684,
    "name": "Dangbo",
    "lat": 6.5850619,
    "lon": 2.5508708,
    "region": 10
  },
  {
    "id": 685,
    "name": "Dangbo-Honmè",
    "lat": 6.6125434,
    "lon": 2.5542697,
    "region": 10
  },
  {
    "id": 686,
    "name": "Dangbodji",
    "lat": 6.6139534,
    "lon": 2.3206048,
    "region": 3
  },
  {
    "id": 687,
    "name": "Dangoussar",
    "lat": 9.6814809,
    "lon": 1.5514897,
    "region": 7
  },
  {
    "id": 688,
    "name": "Danielhoué",
    "lat": 7.2658809,
    "lon": 1.7643619,
    "region": 6
  },
  {
    "id": 689,
    "name": "Danko",
    "lat": 6.6268245,
    "lon": 2.4577009,
    "region": 10
  },
  {
    "id": 690,
    "name": "Danmakahoué",
    "lat": 6.9354667,
    "lon": 1.7400311,
    "region": 6
  },
  {
    "id": 691,
    "name": "Danmè-Lokonon",
    "lat": 6.5435501,
    "lon": 2.5910885,
    "region": 10
  },
  {
    "id": 692,
    "name": "Danmlonkou",
    "lat": 7.3084629,
    "lon": 2.0231841,
    "region": 12
  },
  {
    "id": 693,
    "name": "Dannou",
    "lat": 6.6293267,
    "lon": 2.4712056,
    "region": 10
  },
  {
    "id": 694,
    "name": "Dannou-Ayidagbédji",
    "lat": 6.6300094,
    "lon": 2.4753314,
    "region": 10
  },
  {
    "id": 695,
    "name": "Dannouhoué",
    "lat": 6.9571601,
    "lon": 1.6724132,
    "region": 6
  },
  {
    "id": 696,
    "name": "Danogou",
    "lat": 9.5227014,
    "lon": 1.9453747,
    "region": 7
  },
  {
    "id": 697,
    "name": "Dânongon",
    "lat": 7.2216636,
    "lon": 2.0153296,
    "region": 12
  },
  {
    "id": 698,
    "name": "Dansatigo",
    "lat": 6.599891,
    "lon": 1.9491576,
    "region": 9
  },
  {
    "id": 699,
    "name": "Dantcha",
    "lat": 10.4459126,
    "lon": 2.6199588,
    "region": 4
  },
  {
    "id": 700,
    "name": "Dantchao",
    "lat": 10.4229567,
    "lon": 3.1468213,
    "region": 4
  },
  {
    "id": 701,
    "name": "Danto",
    "lat": 6.5263213,
    "lon": 2.6114351,
    "region": 10
  },
  {
    "id": 702,
    "name": "Danto-Les-Palmiers",
    "lat": 6.5229634,
    "lon": 2.6078219,
    "region": 10
  },
  {
    "id": 703,
    "name": "Dantota",
    "lat": 7.3068199,
    "lon": 2.0847943,
    "region": 12
  },
  {
    "id": 704,
    "name": "Danvohoué",
    "lat": 6.8574087,
    "lon": 1.6855227,
    "region": 6
  },
  {
    "id": 705,
    "name": "Daringa",
    "lat": 9.4575313,
    "lon": 2.032455,
    "region": 7
  },
  {
    "id": 706,
    "name": "Darnon",
    "lat": 9.4275908,
    "lon": 2.7176282,
    "region": 4
  },
  {
    "id": 707,
    "name": "Dassa-Zoumé",
    "lat": 7.7815402,
    "lon": 2.183606,
    "region": 5,
    "altName": "Igbo Ìdàáshà"
  },
  {
    "id": 708,
    "name": "Dassari",
    "lat": 10.8114546,
    "lon": 1.1439349,
    "region": 2
  },
  {
    "id": 709,
    "name": "Dassèkomey",
    "lat": 6.4886756,
    "lon": 2.2492346,
    "region": 3
  },
  {
    "id": 710,
    "name": "Dasso",
    "lat": 7.0109964,
    "lon": 2.4669881,
    "region": 12
  },
  {
    "id": 711,
    "name": "Datcha",
    "lat": 7.4700389,
    "lon": 1.6567765,
    "region": 6
  },
  {
    "id": 712,
    "name": "Datori",
    "lat": 10.4131233,
    "lon": 0.7881224,
    "region": 2
  },
  {
    "id": 713,
    "name": "Davègo",
    "lat": 7.2844767,
    "lon": 2.1460354,
    "region": 12
  },
  {
    "id": 714,
    "name": "Davi Sogo",
    "lat": 7.623789,
    "lon": 2.2512534,
    "region": 5
  },
  {
    "id": 715,
    "name": "Dawhèhoué",
    "lat": 6.9813153,
    "lon": 1.7505053,
    "region": 6
  },
  {
    "id": 716,
    "name": "Dazoumè",
    "lat": 7.2257068,
    "lon": 2.0085927,
    "region": 12
  },
  {
    "id": 717,
    "name": "Dédékpoé",
    "lat": 6.6260756,
    "lon": 1.6180746,
    "region": 9
  },
  {
    "id": 718,
    "name": "Dêdêra",
    "lat": 9.708984,
    "lon": 1.7562626,
    "region": 7
  },
  {
    "id": 719,
    "name": "Dédjihoué",
    "lat": 6.9203276,
    "lon": 1.7401765,
    "region": 6
  },
  {
    "id": 720,
    "name": "Dèdo",
    "lat": 6.6548322,
    "lon": 2.3727296,
    "region": 3
  },
  {
    "id": 721,
    "name": "Dédomè",
    "lat": 6.5761016,
    "lon": 2.009855,
    "region": 3
  },
  {
    "id": 722,
    "name": "Déganhoué",
    "lat": 6.8558079,
    "lon": 1.7685368,
    "region": 6
  },
  {
    "id": 723,
    "name": "Dégouè Domè",
    "lat": 6.3265647,
    "lon": 2.0584106,
    "region": 3
  },
  {
    "id": 724,
    "name": "Dèguè-Dèg",
    "lat": 11.8420616,
    "lon": 3.31447,
    "region": 1
  },
  {
    "id": 725,
    "name": "Déguèli",
    "lat": 7.1195198,
    "lon": 2.0845222,
    "region": 12
  },
  {
    "id": 726,
    "name": "Déguihoué",
    "lat": 6.830854,
    "lon": 1.7872897,
    "region": 6
  },
  {
    "id": 727,
    "name": "Dékandji",
    "lat": 6.8074517,
    "lon": 1.7599105,
    "region": 6
  },
  {
    "id": 728,
    "name": "Dékanmè",
    "lat": 6.5665855,
    "lon": 1.9960127,
    "region": 3
  },
  {
    "id": 729,
    "name": "Dékanmè-Wodji",
    "lat": 6.7724533,
    "lon": 2.4674661,
    "region": 10
  },
  {
    "id": 730,
    "name": "Dékanmey",
    "lat": 6.9760691,
    "lon": 1.7059856,
    "region": 6
  },
  {
    "id": 731,
    "name": "DEKPO",
    "lat": 7.0001007,
    "lon": 1.6812715,
    "region": 6
  },
  {
    "id": 732,
    "name": "Délikomè",
    "lat": 6.6777578,
    "lon": 2.4747221,
    "region": 10
  },
  {
    "id": 733,
    "name": "Démahouhoué",
    "lat": 6.8457646,
    "lon": 1.7237974,
    "region": 6
  },
  {
    "id": 734,
    "name": "Dèmè",
    "lat": 7.0572784,
    "lon": 2.2484663,
    "region": 12
  },
  {
    "id": 735,
    "name": "Démè",
    "lat": 6.697622,
    "lon": 2.479401,
    "region": 10
  },
  {
    "id": 736,
    "name": "Démè-Gblédj Aga",
    "lat": 6.6872986,
    "lon": 2.4938698,
    "region": 10
  },
  {
    "id": 737,
    "name": "Dèmsihou",
    "lat": 9.6009389,
    "lon": 1.9112025,
    "region": 7
  },
  {
    "id": 738,
    "name": "Dendougou",
    "lat": 9.735886,
    "lon": 1.7289721,
    "region": 7
  },
  {
    "id": 739,
    "name": "Dengou",
    "lat": 9.3209746,
    "lon": 1.7419209,
    "region": 7
  },
  {
    "id": 740,
    "name": "Dènonhoué",
    "lat": 6.666334,
    "lon": 1.9690296,
    "region": 9
  },
  {
    "id": 741,
    "name": "Dénou",
    "lat": 7.562368,
    "lon": 1.69924,
    "region": 12
  },
  {
    "id": 742,
    "name": "Dénou-Lissèzin",
    "lat": 6.9444297,
    "lon": 2.0333396,
    "region": 12
  },
  {
    "id": 743,
    "name": "Dérassi",
    "lat": 10.1615049,
    "lon": 3.261694,
    "region": 4
  },
  {
    "id": 744,
    "name": "Dérou",
    "lat": 11.2924803,
    "lon": 2.3973192,
    "region": 1
  },
  {
    "id": 745,
    "name": "Dèrou-Garou",
    "lat": 11.2943515,
    "lon": 2.3980842,
    "region": 1
  },
  {
    "id": 746,
    "name": "Dèroubannou",
    "lat": 11.3375846,
    "lon": 2.3579729,
    "region": 1
  },
  {
    "id": 747,
    "name": "Détohou",
    "lat": 7.1944568,
    "lon": 1.9750317,
    "region": 12
  },
  {
    "id": 748,
    "name": "Dévé",
    "lat": 6.765026,
    "lon": 1.6647938,
    "region": 6
  },
  {
    "id": 749,
    "name": "Dévèdji",
    "lat": 6.5594103,
    "lon": 1.9391531,
    "region": 9
  },
  {
    "id": 750,
    "name": "Devoukanmey",
    "lat": 6.4291633,
    "lon": 2.1870321,
    "region": 3
  },
  {
    "id": 751,
    "name": "Déwa",
    "lat": 9.6621466,
    "lon": 1.6823426,
    "region": 7
  },
  {
    "id": 752,
    "name": "Dèwémè-Daho",
    "lat": 6.6047366,
    "lon": 2.4840045,
    "region": 10
  },
  {
    "id": 753,
    "name": "Dhodho",
    "lat": 6.633963,
    "lon": 1.8952856,
    "region": 9
  },
  {
    "id": 754,
    "name": "Dhossouhoué",
    "lat": 6.9624559,
    "lon": 1.6767611,
    "region": 6
  },
  {
    "id": 755,
    "name": "Diadia",
    "lat": 10.806566,
    "lon": 2.6100648,
    "region": 1
  },
  {
    "id": 756,
    "name": "Diapéou",
    "lat": 10.8258585,
    "lon": 3.5429068,
    "region": 1
  },
  {
    "id": 757,
    "name": "Didi",
    "lat": 10.3057242,
    "lon": 2.2225364,
    "region": 2
  },
  {
    "id": 758,
    "name": "Diépani-Balimboli",
    "lat": 9.086494,
    "lon": 1.634264,
    "region": 7
  },
  {
    "id": 759,
    "name": "Diguidirou",
    "lat": 9.6050836,
    "lon": 3.1419255,
    "region": 4
  },
  {
    "id": 760,
    "name": "Diguina",
    "lat": 11.137803,
    "lon": 3.6023998,
    "region": 1
  },
  {
    "id": 761,
    "name": "Diguisson",
    "lat": 10.9172916,
    "lon": 2.7974309,
    "region": 1
  },
  {
    "id": 762,
    "name": "Diho",
    "lat": 8.0769065,
    "lon": 2.5253813,
    "region": 5
  },
  {
    "id": 763,
    "name": "Dikouani",
    "lat": 10.3918198,
    "lon": 1.027156,
    "region": 2
  },
  {
    "id": 764,
    "name": "Dikoumini",
    "lat": 10.3151752,
    "lon": 0.9683828,
    "region": 2
  },
  {
    "id": 765,
    "name": "Dikouténi",
    "lat": 10.3672848,
    "lon": 1.0739962,
    "region": 2
  },
  {
    "id": 766,
    "name": "Dikoutoussadé",
    "lat": 10.4337426,
    "lon": 0.9661266,
    "region": 2
  },
  {
    "id": 767,
    "name": "Dikpo",
    "lat": 9.2772952,
    "lon": 2.7008235,
    "region": 4
  },
  {
    "id": 768,
    "name": "Dilly-Fanou",
    "lat": 7.1195277,
    "lon": 1.9924611,
    "region": 12
  },
  {
    "id": 769,
    "name": "Dimari",
    "lat": 10.3464591,
    "lon": 1.3169129,
    "region": 2
  },
  {
    "id": 770,
    "name": "Dimatadoni",
    "lat": 10.3237598,
    "lon": 1.1163442,
    "region": 2
  },
  {
    "id": 771,
    "name": "Dimatékor",
    "lat": 10.4050352,
    "lon": 1.0805888,
    "region": 2
  },
  {
    "id": 772,
    "name": "Dioro Tounga",
    "lat": 11.7879315,
    "lon": 3.5170358,
    "region": 1
  },
  {
    "id": 773,
    "name": "Dipintakouani",
    "lat": 10.3837164,
    "lon": 1.0788588,
    "region": 2
  },
  {
    "id": 774,
    "name": "Dipo",
    "lat": 10.3085219,
    "lon": 1.0395191,
    "region": 2
  },
  {
    "id": 775,
    "name": "Dipodé",
    "lat": 10.4747559,
    "lon": 0.9326502,
    "region": 2
  },
  {
    "id": 776,
    "name": "Dipokor 1",
    "lat": 10.3081504,
    "lon": 1.0871143,
    "region": 2
  },
  {
    "id": 777,
    "name": "Dipokor-Fontri",
    "lat": 10.2907837,
    "lon": 1.0842403,
    "region": 2
  },
  {
    "id": 778,
    "name": "Dipokor-Tari",
    "lat": 10.3080866,
    "lon": 1.110598,
    "region": 2
  },
  {
    "id": 779,
    "name": "Dipoli",
    "lat": 10.323478,
    "lon": 0.9886169,
    "region": 2
  },
  {
    "id": 780,
    "name": "Dissari",
    "lat": 10.4895921,
    "lon": 0.9734876,
    "region": 2
  },
  {
    "id": 781,
    "name": "Dissibli",
    "lat": 10.4493451,
    "lon": 0.8881978,
    "region": 2
  },
  {
    "id": 782,
    "name": "Ditchindia",
    "lat": 10.1432223,
    "lon": 1.1403014,
    "region": 2
  },
  {
    "id": 783,
    "name": "Diyèbouaré",
    "lat": 10.3714642,
    "lon": 0.950598,
    "region": 2
  },
  {
    "id": 784,
    "name": "Djacoté",
    "lat": 6.4038294,
    "lon": 1.8777602,
    "region": 9
  },
  {
    "id": 785,
    "name": "Djadji",
    "lat": 6.656993,
    "lon": 1.8611489,
    "region": 9
  },
  {
    "id": 786,
    "name": "Djagballo",
    "lat": 8.4317219,
    "lon": 2.0396482,
    "region": 5
  },
  {
    "id": 787,
    "name": "Djako Daho",
    "lat": 6.3529631,
    "lon": 2.3555622,
    "region": 3
  },
  {
    "id": 788,
    "name": "Djakotomey",
    "lat": 6.9020379,
    "lon": 1.7178953,
    "region": 6
  },
  {
    "id": 789,
    "name": "Djakotomey 1",
    "lat": 6.9005623,
    "lon": 1.7115123,
    "region": 6
  },
  {
    "id": 790,
    "name": "Djakotomey 2",
    "lat": 6.9075974,
    "lon": 1.7218983,
    "region": 6
  },
  {
    "id": 791,
    "name": "Djakpingou",
    "lat": 9.796086,
    "lon": 1.6735369,
    "region": 7
  },
  {
    "id": 792,
    "name": "Djanglanmey",
    "lat": 6.4125078,
    "lon": 1.8130205,
    "region": 9
  },
  {
    "id": 793,
    "name": "Djanmandji",
    "lat": 8.3584173,
    "lon": 2.1068797,
    "region": 5
  },
  {
    "id": 794,
    "name": "Djeffa-Houédomè",
    "lat": 6.3882226,
    "lon": 2.5604367,
    "region": 10
  },
  {
    "id": 795,
    "name": "Djeffa-Houédomè-Gbago",
    "lat": 6.3940762,
    "lon": 2.5527978,
    "region": 10
  },
  {
    "id": 796,
    "name": "Djeffa-Kowénou",
    "lat": 6.3932871,
    "lon": 2.5664877,
    "region": 10
  },
  {
    "id": 797,
    "name": "Djèga-Dunkassa",
    "lat": 10.2990456,
    "lon": 3.2177245,
    "region": 4
  },
  {
    "id": 798,
    "name": "Djègbadji",
    "lat": 6.3278183,
    "lon": 2.082377,
    "region": 3
  },
  {
    "id": 799,
    "name": "Djègbamè",
    "lat": 6.3332271,
    "lon": 1.9707997,
    "region": 3
  },
  {
    "id": 800,
    "name": "Djègbé",
    "lat": 7.1701381,
    "lon": 2.0082444,
    "region": 12
  },
  {
    "id": 801,
    "name": "Djéhou",
    "lat": 9.6082122,
    "lon": 1.6093802,
    "region": 7
  },
  {
    "id": 802,
    "name": "Djèkian",
    "lat": 6.8226589,
    "lon": 1.9235526,
    "region": 6
  },
  {
    "id": 803,
    "name": "Djèkpé",
    "lat": 6.5200885,
    "lon": 2.5379663,
    "region": 10
  },
  {
    "id": 804,
    "name": "Djèkpota-Adounko",
    "lat": 6.3696474,
    "lon": 2.2830472,
    "region": 3
  },
  {
    "id": 805,
    "name": "Djèrègbé",
    "lat": 6.4279504,
    "lon": 2.6250822,
    "region": 10,
    "altName": "Djrègbé;Djèrègbè"
  },
  {
    "id": 806,
    "name": "Djèrègbé-Houéla",
    "lat": 6.4301341,
    "lon": 2.6306247,
    "region": 10
  },
  {
    "id": 807,
    "name": "Djèro (Adja Pira)",
    "lat": 8.4204867,
    "lon": 1.6965175,
    "region": 5
  },
  {
    "id": 808,
    "name": "Djessi",
    "lat": 7.3780596,
    "lon": 1.9442527,
    "region": 12
  },
  {
    "id": 809,
    "name": "Djèwanou",
    "lat": 6.687487,
    "lon": 2.4284665,
    "region": 3
  },
  {
    "id": 810,
    "name": "Djidja",
    "lat": 7.3447833,
    "lon": 1.9342593,
    "region": 12
  },
  {
    "id": 811,
    "name": "Djidjozoun",
    "lat": 6.7238836,
    "lon": 2.0211207,
    "region": 9
  },
  {
    "id": 812,
    "name": "Djigbé",
    "lat": 6.8663027,
    "lon": 2.3659829,
    "region": 3
  },
  {
    "id": 813,
    "name": "Djigbé-Agué",
    "lat": 6.8661481,
    "lon": 2.3616743,
    "region": 3
  },
  {
    "id": 814,
    "name": "Djikpamè",
    "lat": 6.9295859,
    "lon": 1.6601447,
    "region": 6
  },
  {
    "id": 815,
    "name": "Djilidjaré",
    "lat": 10.2974746,
    "lon": 3.1648879,
    "region": 4
  },
  {
    "id": 816,
    "name": "Djimadohoué",
    "lat": 6.9446958,
    "lon": 1.694898,
    "region": 6
  },
  {
    "id": 817,
    "name": "Djinmèlè",
    "lat": 10.8171342,
    "lon": 2.852969,
    "region": 1
  },
  {
    "id": 818,
    "name": "Djitin-Aga",
    "lat": 6.5837077,
    "lon": 2.2612127,
    "region": 3
  },
  {
    "id": 819,
    "name": "DJODJIZOUNMEY/OUEDEME-ADJA",
    "lat": 6.7241167,
    "lon": 1.6138169,
    "region": 9
  },
  {
    "id": 820,
    "name": "Djoho",
    "lat": 7.2564193,
    "lon": 2.0326935,
    "region": 12
  },
  {
    "id": 821,
    "name": "Djohoungbonou",
    "lat": 6.6165366,
    "lon": 2.063834,
    "region": 3
  },
  {
    "id": 822,
    "name": "Djoléni",
    "lat": 10.9906882,
    "lon": 1.9878713,
    "region": 2,
    "altName": "Galini"
  },
  {
    "id": 823,
    "name": "Djomon",
    "lat": 6.5690555,
    "lon": 2.6235194,
    "region": 10
  },
  {
    "id": 824,
    "name": "Djondji",
    "lat": 6.3058676,
    "lon": 1.9746852,
    "region": 3
  },
  {
    "id": 825,
    "name": "Djonouhoué",
    "lat": 6.9539135,
    "lon": 1.7492838,
    "region": 6
  },
  {
    "id": 826,
    "name": "Djonouta",
    "lat": 7.2657566,
    "lon": 2.0759294,
    "region": 12
  },
  {
    "id": 827,
    "name": "Djougou",
    "lat": 9.7106683,
    "lon": 1.6651614,
    "region": 7
  },
  {
    "id": 828,
    "name": "Djowé",
    "lat": 7.0963921,
    "lon": 1.7283967,
    "region": 6
  },
  {
    "id": 829,
    "name": "Djrékpédji",
    "lat": 7.5978,
    "lon": 1.7788095,
    "region": 12
  },
  {
    "id": 830,
    "name": "Djrouhoué",
    "lat": 6.4715508,
    "lon": 1.8886487,
    "region": 9
  },
  {
    "id": 831,
    "name": "Do-Hongla",
    "lat": 6.4753149,
    "lon": 2.6966071,
    "region": 10
  },
  {
    "id": 832,
    "name": "Dodja",
    "lat": 6.5181637,
    "lon": 2.2892344,
    "region": 3
  },
  {
    "id": 833,
    "name": "Dodji-Aliho",
    "lat": 6.6555256,
    "lon": 2.2264696,
    "region": 3
  },
  {
    "id": 834,
    "name": "Dodji-Bata",
    "lat": 6.686431,
    "lon": 2.2881353,
    "region": 3
  },
  {
    "id": 835,
    "name": "Dodjidangban",
    "lat": 6.6392933,
    "lon": 2.2225561,
    "region": 3
  },
  {
    "id": 836,
    "name": "Dododawa",
    "lat": 11.0983092,
    "lon": 2.8553617,
    "region": 1
  },
  {
    "id": 837,
    "name": "Dodomè",
    "lat": 7.1154663,
    "lon": 2.0871631,
    "region": 12
  },
  {
    "id": 838,
    "name": "Dodomey",
    "lat": 6.6671466,
    "lon": 2.1494818,
    "region": 3
  },
  {
    "id": 839,
    "name": "Dodopanè",
    "lat": 11.1668554,
    "lon": 2.9164195,
    "region": 1
  },
  {
    "id": 840,
    "name": "Doga",
    "lat": 7.2033494,
    "lon": 2.3867236,
    "region": 12
  },
  {
    "id": 841,
    "name": "Dogba-Hè",
    "lat": 6.8533535,
    "lon": 2.4552253,
    "region": 10
  },
  {
    "id": 842,
    "name": "Dogbadji",
    "lat": 6.5816109,
    "lon": 2.5022338,
    "region": 10
  },
  {
    "id": 843,
    "name": "Dogbawô",
    "lat": 6.8448374,
    "lon": 2.4564078,
    "region": 10
  },
  {
    "id": 844,
    "name": "Dogbo",
    "lat": 7.7583854,
    "lon": 2.3249727,
    "region": 5
  },
  {
    "id": 845,
    "name": "Dogbo-Tota",
    "lat": 6.8014046,
    "lon": 1.781282,
    "region": 6,
    "shortName": "Dogbo"
  },
  {
    "id": 846,
    "name": "Dogla",
    "lat": 6.5962079,
    "lon": 2.5434557,
    "region": 10
  },
  {
    "id": 847,
    "name": "Dogla Lago",
    "lat": 6.6027097,
    "lon": 2.5412789,
    "region": 10
  },
  {
    "id": 848,
    "name": "Dogo",
    "lat": 7.5415769,
    "lon": 2.6132797,
    "region": 11
  },
  {
    "id": 849,
    "name": "Dogohoué",
    "lat": 7.0214669,
    "lon": 1.7274313,
    "region": 6
  },
  {
    "id": 850,
    "name": "Dogosanmou",
    "lat": 9.1464606,
    "lon": 2.7243733,
    "region": 4
  },
  {
    "id": 851,
    "name": "Dogossouwan",
    "lat": 11.2893173,
    "lon": 2.3250324,
    "region": 1
  },
  {
    "id": 852,
    "name": "Dogoudo",
    "lat": 7.1247868,
    "lon": 2.0872281,
    "region": 12
  },
  {
    "id": 853,
    "name": "Dogué",
    "lat": 9.1014312,
    "lon": 1.9370867,
    "region": 7
  },
  {
    "id": 854,
    "name": "Doguia",
    "lat": 6.5642177,
    "lon": 1.9400323,
    "region": 9
  },
  {
    "id": 855,
    "name": "Doh",
    "lat": 10.3417251,
    "lon": 1.9357422,
    "region": 2
  },
  {
    "id": 856,
    "name": "Dohi",
    "lat": 6.3830784,
    "lon": 1.9399425,
    "region": 9
  },
  {
    "id": 857,
    "name": "Dohinonko",
    "lat": 6.5310336,
    "lon": 2.1898091,
    "region": 3
  },
  {
    "id": 858,
    "name": "Dohouè",
    "lat": 7.0506149,
    "lon": 2.2022077,
    "region": 12
  },
  {
    "id": 859,
    "name": "Dohouimè",
    "lat": 7.251881,
    "lon": 2.0059824,
    "region": 12
  },
  {
    "id": 860,
    "name": "Dohounvè",
    "lat": 7.1301182,
    "lon": 2.0803851,
    "region": 12
  },
  {
    "id": 861,
    "name": "Dokodji",
    "lat": 6.5825652,
    "lon": 2.2781556,
    "region": 3
  },
  {
    "id": 862,
    "name": "Dokomè",
    "lat": 6.5749852,
    "lon": 2.3623784,
    "region": 3
  },
  {
    "id": 863,
    "name": "Dokon",
    "lat": 7.2180081,
    "lon": 2.0073658,
    "region": 12
  },
  {
    "id": 864,
    "name": "Dokoundji",
    "lat": 8.0470492,
    "lon": 2.3041364,
    "region": 5
  },
  {
    "id": 865,
    "name": "Dokponouhoué",
    "lat": 6.9580203,
    "lon": 1.7052989,
    "region": 6
  },
  {
    "id": 866,
    "name": "Doloumè",
    "lat": 7.0254552,
    "lon": 1.7067137,
    "region": 6
  },
  {
    "id": 867,
    "name": "Dombouré",
    "lat": 11.1478447,
    "lon": 2.295668,
    "region": 1
  },
  {
    "id": 868,
    "name": "Domè",
    "lat": 7.0961616,
    "lon": 2.3090413,
    "region": 12
  },
  {
    "id": 869,
    "name": "Domè-Aga",
    "lat": 7.1034458,
    "lon": 2.3088128,
    "region": 12
  },
  {
    "id": 870,
    "name": "Domè-Go",
    "lat": 7.094653,
    "lon": 2.3052646,
    "region": 12
  },
  {
    "id": 871,
    "name": "Don",
    "lat": 7.2531466,
    "lon": 2.3790509,
    "region": 12
  },
  {
    "id": 872,
    "name": "Don-Agbodougbé",
    "lat": 6.5736473,
    "lon": 1.7625332,
    "region": 9
  },
  {
    "id": 873,
    "name": "Don-Agonlin",
    "lat": 6.995644,
    "lon": 2.0542548,
    "region": 12
  },
  {
    "id": 874,
    "name": "Don-Kondji",
    "lat": 6.5703593,
    "lon": 1.7682141,
    "region": 9
  },
  {
    "id": 875,
    "name": "Dona",
    "lat": 7.4192115,
    "lon": 1.9859625,
    "region": 12
  },
  {
    "id": 876,
    "name": "Donga",
    "lat": 9.7124407,
    "lon": 1.9490252,
    "region": 7
  },
  {
    "id": 877,
    "name": "Donoukpa",
    "lat": 6.4653009,
    "lon": 2.5475295,
    "region": 10
  },
  {
    "id": 878,
    "name": "Donwari",
    "lat": 11.1177775,
    "lon": 2.8532494,
    "region": 1
  },
  {
    "id": 879,
    "name": "Donwari 2",
    "lat": 9.605392,
    "lon": 1.9706096,
    "region": 7
  },
  {
    "id": 880,
    "name": "Dossouli",
    "lat": 7.1748111,
    "lon": 1.9344511,
    "region": 12
  },
  {
    "id": 881,
    "name": "Dossounon",
    "lat": 7.1308982,
    "lon": 2.0630787,
    "region": 12
  },
  {
    "id": 882,
    "name": "Dossounou",
    "lat": 6.4680566,
    "lon": 2.2291247,
    "region": 3
  },
  {
    "id": 883,
    "name": "Dougou",
    "lat": 10.6466032,
    "lon": 2.5436297,
    "region": 1
  },
  {
    "id": 884,
    "name": "Dougoulaye",
    "lat": 10.7152632,
    "lon": 3.1356696,
    "region": 1
  },
  {
    "id": 885,
    "name": "Doukonta",
    "lat": 6.6725318,
    "lon": 1.7023042,
    "region": 9
  },
  {
    "id": 886,
    "name": "Doumahou",
    "lat": 6.8034771,
    "lon": 1.6683823,
    "region": 6
  },
  {
    "id": 887,
    "name": "Doume",
    "lat": 8.0174273,
    "lon": 1.6448043,
    "region": 5
  },
  {
    "id": 888,
    "name": "Douroubé",
    "lat": 9.4061879,
    "lon": 2.6833698,
    "region": 4
  },
  {
    "id": 889,
    "name": "Dousso",
    "lat": 7.4346028,
    "lon": 1.6590506,
    "region": 6
  },
  {
    "id": 890,
    "name": "Doutou",
    "lat": 6.5725054,
    "lon": 1.8792723,
    "region": 9
  },
  {
    "id": 891,
    "name": "Dovènou",
    "lat": 6.6412484,
    "lon": 2.2364141,
    "region": 3
  },
  {
    "id": 892,
    "name": "Dovi-Cogbé",
    "lat": 7.16755,
    "lon": 2.3449521,
    "region": 12
  },
  {
    "id": 893,
    "name": "Dovi-Dizigo",
    "lat": 7.1619628,
    "lon": 2.3816337,
    "region": 12
  },
  {
    "id": 894,
    "name": "Dovi-Dovè",
    "lat": 7.1769266,
    "lon": 2.3869139,
    "region": 12
  },
  {
    "id": 895,
    "name": "Dovi-Somè",
    "lat": 7.8375004,
    "lon": 2.2795063,
    "region": 5
  },
  {
    "id": 896,
    "name": "Dovo",
    "lat": 6.7692935,
    "lon": 2.1650032,
    "region": 3
  },
  {
    "id": 897,
    "name": "Dovogon",
    "lat": 7.0622193,
    "lon": 2.1469222,
    "region": 12
  },
  {
    "id": 898,
    "name": "Dowomey",
    "lat": 6.8333577,
    "lon": 1.7454229,
    "region": 6
  },
  {
    "id": 899,
    "name": "Doyissa",
    "lat": 7.9882725,
    "lon": 1.983347,
    "region": 5
  },
  {
    "id": 900,
    "name": "Drabo",
    "lat": 6.49969,
    "lon": 2.2986169,
    "region": 3
  },
  {
    "id": 901,
    "name": "Dramè",
    "lat": 7.2894306,
    "lon": 2.1544683,
    "region": 12
  },
  {
    "id": 902,
    "name": "Draou",
    "lat": 7.3416442,
    "lon": 1.8034047,
    "region": 12
  },
  {
    "id": 903,
    "name": "Dré",
    "lat": 6.4604827,
    "lon": 1.8345591,
    "region": 9
  },
  {
    "id": 904,
    "name": "Duimè-Houin",
    "lat": 6.6203565,
    "lon": 1.7671922,
    "region": 9
  },
  {
    "id": 905,
    "name": "Dunkassa",
    "lat": 10.3556586,
    "lon": 3.1498407,
    "region": 4
  },
  {
    "id": 906,
    "name": "Èdahoué",
    "lat": 8.200651,
    "lon": 1.9859446,
    "region": 5
  },
  {
    "id": 907,
    "name": "Edéhoué",
    "lat": 6.9857562,
    "lon": 1.7284235,
    "region": 6
  },
  {
    "id": 908,
    "name": "Edjihoué",
    "lat": 6.9335276,
    "lon": 1.7602694,
    "region": 6
  },
  {
    "id": 909,
    "name": "Effèoutè",
    "lat": 7.6536053,
    "lon": 2.6698095,
    "region": 11
  },
  {
    "id": 910,
    "name": "Éfiohoué",
    "lat": 6.984602,
    "lon": 1.7661898,
    "region": 6
  },
  {
    "id": 911,
    "name": "Ègbè-Agbo",
    "lat": 7.1385042,
    "lon": 2.564458,
    "region": 11
  },
  {
    "id": 912,
    "name": "Ègbèssi",
    "lat": 7.9357713,
    "lon": 2.2385439,
    "region": 5
  },
  {
    "id": 913,
    "name": "Eglimè",
    "lat": 7.08684,
    "lon": 1.6755723,
    "region": 6
  },
  {
    "id": 914,
    "name": "Ekinhoué",
    "lat": 6.9513972,
    "lon": 1.7045891,
    "region": 6
  },
  {
    "id": 915,
    "name": "Ekpè",
    "lat": 6.3877269,
    "lon": 2.5420041,
    "region": 10
  },